{
"type": "FeatureCollection",
"name": "points",
"crs": { "type": "name", "properties": { "name": "urn:ogc:def:crs:OGC:1.3:CRS84" } },
"features": [
{ "type": "Feature", "properties": { "osm_id": "126120236", "name": "Musée Municipal", "other_tags": "\"addr:city\"=>\"Moret-sur-Loing\",\"addr:postcode\"=>\"77250\",\"addr:street\"=>\"Place de Samois\",\"museum\"=>\"art\",\"operator\"=>\"Moret-Loing-et-Orvanne\",\"operator:type\"=>\"public\",\"phone\"=>\"+33 1 60 70 32 30\",\"ref:FR:museofile\"=>\"M0380\",\"tourism\"=>\"museum\",\"website\"=>\"http://www.ville-moret-sur-loing.fr/rubrique.php?id=68\"" }, "geometry": { "type": "Point", "coordinates": [ 2.8149097, 48.373796 ] } },
{ "type": "Feature", "properties": { "osm_id": "130102845", "name": "Musée de l'Armée", "other_tags": "\"addr:city\"=>\"Paris\",\"addr:housenumber\"=>\"129\",\"addr:postcode\"=>\"75007\",\"addr:street\"=>\"Rue de Grenelle\",\"fee\"=>\"full:12;discount:10;free: under 26, handicap, press, unemployment\",\"name:de\"=>\"Armeemuseum\",\"name:en\"=>\"The Army Museum\",\"name:fr\"=>\"Musée de l'Armée (Les Invalides)\",\"name:ru\"=>\"Музей Армии\",\"opening_hours\"=>\"Nov-Mar: Mo-Su 10:00-17:00; Apr-Oct: Mo-Su 10:00-18:00; Apr-Sep: Tu 21:00+; Jan 1 off; May 1 off; Dec 25 off\",\"toilets:wheelchair\"=>\"yes\",\"tourism\"=>\"museum\",\"website\"=>\"http://www.musee-armee.fr/\",\"wheelchair\"=>\"yes\",\"wheelchair:description:de\"=>\"Barrierefreier Zugang nur über Avenue de Tourville möglich\",\"wikidata\"=>\"Q1996069\",\"wikipedia\"=>\"fr:Musée de l'Armée (Paris)\"" }, "geometry": { "type": "Point", "coordinates": [ 2.3118779, 48.8570374 ] } },
{ "type": "Feature", "properties": { "osm_id": "136830532", "name": "Aérodrome de Saint-Cyr-l'École", "other_tags": "\"aerodrome:type\"=>\"regional\",\"aeroway\"=>\"aerodrome\",\"icao\"=>\"LFPZ\",\"wikidata\"=>\"Q2875600\",\"wikipedia\"=>\"fr:Aérodrome de Saint-Cyr-l'École\"" }, "geometry": { "type": "Point", "coordinates": [ 2.0686322, 48.8119087 ] } },
{ "type": "Feature", "properties": { "osm_id": "192222321", "name": "Musée des Prisons", "other_tags": "\"tourism\"=>\"museum\"" }, "geometry": { "type": "Point", "coordinates": [ 2.7033875, 48.4098118 ] } },
{ "type": "Feature", "properties": { "osm_id": "237003117", "name": "Musée de l'Assistance Publique Hôpitaux de Paris", "other_tags": "\"alt_name\"=>\"Hôtel de Miramion\",\"phone\"=>\"+33140275005\",\"tourism\"=>\"museum\",\"website\"=>\"https://www.aphp.fr/\",\"wikidata\"=>\"Q1998638\",\"wikipedia\"=>\"fr:Musée de l'AP-HP\"" }, "geometry": { "type": "Point", "coordinates": [ 2.3518758, 48.850724 ] } },
{ "type": "Feature", "properties": { "osm_id": "247584452", "name": "Musée des Arts Décoratifs - Musée de la Publicité", "other_tags": "\"level\"=>\"4\",\"name:ru\"=>\"Музей декоративного искусства\",\"phone\"=>\"+33 1 44 55 57 50\",\"ref:FR:museofile\"=>\"M5021\",\"tourism\"=>\"museum\",\"website\"=>\"http://www.lesartsdecoratifs.fr/fr/01museeartsdeco/index.html\",\"wheelchair\"=>\"limited\",\"wikidata\"=>\"Q1319378\",\"wikipedia\"=>\"fr:Musée des Arts décoratifs de Paris\"" }, "geometry": { "type": "Point", "coordinates": [ 2.3329513, 48.8631692 ] } },
{ "type": "Feature", "properties": { "osm_id": "247589882", "name": "Colette", "other_tags": "\"level\"=>\"-1;0;1;2\",\"opening_hours\"=>\"Mo-sa 11:00-19:00\",\"phone\"=>\"+33155353390\",\"shop\"=>\"department_store\",\"shop:level:0\"=>\"clothes;books;shoes\",\"shop:level:1\"=>\"water\",\"shop:level:2\"=>\"art\",\"website\"=>\"https://www.colette.fr/\",\"wikidata\"=>\"Q737606\"" }, "geometry": { "type": "Point", "coordinates": [ 2.3308795, 48.86534 ] } },
{ "type": "Feature", "properties": { "osm_id": "247618453", "name": "Musée des Arts et Métiers", "other_tags": "\"addr:postcode\"=>\"75003\",\"addr:street\"=>\"Rue Réaumur\",\"fax\"=>\"+33 1 53 01 82 01\",\"fee\"=>\"full:6,50;discount:4,5;free: under 26, handicap, press, unemployment, ICOM, AMCSTI, PARIS MUSEUM PASS, Cnam, Amis du Musée des arts et métiers, 1er dimanche de chaque mois, jeudi à partir 18h00\",\"name:en\"=>\"Museum of Arts et Métiers\",\"name:ru\"=>\"Музей искусств и ремёсел\",\"opening_hours\"=>\"Fr-We 10:00-18:00; Th 10:00-21:30\",\"phone\"=>\"+33 1 53 01 82 20\",\"ref:FR:museofile\"=>\"M5065\",\"tourism\"=>\"museum\",\"website\"=>\"http://www.arts-et-metiers.net\",\"wheelchair\"=>\"yes\",\"wikidata\"=>\"Q1538826\",\"wikipedia\"=>\"fr:Musée des arts et métiers\"" }, "geometry": { "type": "Point", "coordinates": [ 2.3554138, 48.8660977 ] } },
{ "type": "Feature", "properties": { "osm_id": "250657151", "name": "Tour de Jean-sans-Peur", "other_tags": "\"alt_name\"=>\"Tour Jean-sans-Peur\",\"historic\"=>\"castle\",\"opening_hours\"=>\"We-Su 13:30-18:59\",\"tourism\"=>\"museum\",\"website\"=>\"http://www.tourjeansanspeur.com/\",\"wikidata\"=>\"Q3533101\",\"wikipedia\"=>\"fr:Tour Jean-sans-Peur\"" }, "geometry": { "type": "Point", "coordinates": [ 2.3480523, 48.8643016 ] } },
{ "type": "Feature", "properties": { "osm_id": "251318666", "name": "Musée national Gustave Moreau", "other_tags": "\"alt_name\"=>\"Musée national Gustave Moreau\",\"official_name\"=>\"Musée Gustave Moreau\",\"phone\"=>\"+33 1 48 74 38 50\",\"ref:FR:museofile\"=>\"M5041\",\"tourism\"=>\"museum\",\"website\"=>\"http://www.musee-moreau.fr\",\"wikidata\"=>\"Q2296362\",\"wikipedia\"=>\"fr:Musée Gustave-Moreau\"" }, "geometry": { "type": "Point", "coordinates": [ 2.3345515, 48.8779237 ] } },
{ "type": "Feature", "properties": { "osm_id": "251742041", "name": "Visite des Égouts de Paris", "other_tags": "\"addr:city\"=>\"Paris\",\"addr:housenumber\"=>\"93\",\"addr:postcode\"=>\"75007\",\"addr:street\"=>\"Quai d'Orsay\",\"addr:unit\"=>\"Face\",\"description\"=>\"La visite présente les entrailles de Paris de l'Antiquité à Belgrand, ingénieur du XIXe siècle, qui a conçu le réseau d'égouts actuel. Dans les galeries souterraines, sont évoqués le cycle de l'eau et le travail des égoutiers de Paris.\",\"email\"=>\"visite-des-egouts@paris.fr\",\"fare\"=>\"full:4,30;discount:3,50\",\"fare:currency\"=>\"euro\",\"fax\"=>\"+33153682789\",\"level\"=>\"-1\",\"note:fr\"=>\"Dernier ticket vendu à 16h en hiver, 17h en été\",\"opening_hours\"=>\"closed\",\"operator\"=>\"Mairie de Paris\",\"operator:type\"=>\"public\",\"phone\"=>\"+33153682781\",\"tourism\"=>\"museum\",\"website\"=>\"http://equipement.paris.fr/musee-des-egouts-5059\",\"wheelchair\"=>\"no\",\"wikidata\"=>\"Q2654419\",\"wikipedia\"=>\"fr:Musée des Égouts\"" }, "geometry": { "type": "Point", "coordinates": [ 2.3025393, 48.8626245 ] } },
{ "type": "Feature", "properties": { "osm_id": "251851363", "name": "Musée Grévin", "other_tags": "\"addr:city\"=>\"Paris\",\"addr:housenumber\"=>\"10\",\"addr:postcode\"=>\"75009\",\"addr:street\"=>\"Boulevard Montmartre\",\"heritage\"=>\"3\",\"heritage:operator\"=>\"mhs\",\"mhs:inscription_date\"=>\"1964-11-23\",\"name:ru\"=>\"Музей Гревен\",\"name:uk\"=>\"Музей Гревен\",\"opening_hours\"=>\"Mo-Fr 09:30-18:30; Sa,Su 09:30-19:00\",\"phone\"=>\"+33 1 47 70 85 05\",\"ref:mhs\"=>\"PA00088993\",\"source:heritage\"=>\"Ministère de la Culture - 07/2018\",\"tourism\"=>\"museum\",\"website\"=>\"https://www.grevin.com/\",\"wikidata\"=>\"Q1265070\",\"wikipedia\"=>\"fr:Musée Grévin\"" }, "geometry": { "type": "Point", "coordinates": [ 2.3420974, 48.8718365 ] } },
{ "type": "Feature", "properties": { "osm_id": "252211317", "name": "Musée Edith Piaf", "other_tags": "\"description:opening_hours\"=>\"sur rendez-vous (mention affichée sur plaque à l'entrée)\",\"opening_hours\"=>\"Mo-We 13:00-18:00; Th 10:00-12:00 \\\"mandatory reservation by phone\\\"\",\"operator\"=>\"Les Amis d'Édith Piaf\",\"phone\"=>\"+33143555272\",\"reservation\"=>\"required\",\"tourism\"=>\"museum\",\"website\"=>\"https://www.parisinfo.com/musee-monument-paris/71402/Musee-Edith-Piaf\",\"wikidata\"=>\"Q3055415\",\"wikipedia\"=>\"fr:Musée Édith-Piaf\"" }, "geometry": { "type": "Point", "coordinates": [ 2.3817367, 48.8662368 ] } },
{ "type": "Feature", "properties": { "osm_id": "252855046", "name": "Musée Pasteur", "other_tags": "\"phone\"=>\"+33145688283\",\"tourism\"=>\"museum\",\"website\"=>\"https://www.pasteur.fr/fr/institut-pasteur/musee-pasteur\",\"wikidata\"=>\"Q2255375\"" }, "geometry": { "type": "Point", "coordinates": [ 2.3113658, 48.8403827 ] } },
{ "type": "Feature", "properties": { "osm_id": "252970813", "name": "Espace Dali", "other_tags": "\"name:ja\"=>\"ダリ美術館\",\"name:ru\"=>\"Музей Дали\",\"name:zh\"=>\"达里空间\",\"phone\"=>\"+33142644010\",\"tourism\"=>\"museum\",\"website\"=>\"https://www.daliparis.com/\",\"wikidata\"=>\"Q973216\",\"wikipedia\"=>\"fr:Espace Dalí\"" }, "geometry": { "type": "Point", "coordinates": [ 2.3399022, 48.88648 ] } },
{ "type": "Feature", "properties": { "osm_id": "253065826", "name": "Cité des Sciences et de l'Industrie", "other_tags": "\"addr:city\"=>\"Paris\",\"addr:housenumber\"=>\"30\",\"addr:postcode\"=>\"75019\",\"addr:street\"=>\"Avenue Corentin Cariou\",\"fee\"=>\"yes\",\"hazard\"=>\"robot\",\"importance\"=>\"international\",\"internet_access\"=>\"wlan\",\"internet_access:fee\"=>\"no\",\"name:it\"=>\"Museo delle Scienze e dell'Industria\",\"name:ru\"=>\"Городок науки и индустрии\",\"opening_hours\"=>\"Tu-Sa 10:00-18:00; Su 10:00-19:00\",\"phone\"=>\"+33 1 40 05 70 00\",\"subject\"=>\"science\",\"tourism\"=>\"museum\",\"tourism:visitors\"=>\"3000000\",\"website\"=>\"http://www.cite-sciences.fr/\",\"wheelchair\"=>\"yes\",\"wikidata\"=>\"Q1094338\",\"wikipedia\"=>\"fr:Cité des sciences et de l'industrie\"" }, "geometry": { "type": "Point", "coordinates": [ 2.3879761, 48.8957518 ] } },
{ "type": "Feature", "properties": { "osm_id": "253963375", "name": "Galerie Vivienne", "other_tags": "\"name:ru\"=>\"Галерея Вивьен\",\"opening_hours\"=>\"Mo-Sa 08:30-20:30\",\"shop\"=>\"mall\"" }, "geometry": { "type": "Point", "coordinates": [ 2.3399053, 48.8670343 ] } },
{ "type": "Feature", "properties": { "osm_id": "253966979", "name": "Passages des Princes", "other_tags": "\"shop\"=>\"mall\"" }, "geometry": { "type": "Point", "coordinates": [ 2.3389639, 48.8713588 ] } },
{ "type": "Feature", "properties": { "osm_id": "254033221", "name": "Maison de Victor Hugo", "other_tags": "\"addr:city\"=>\"Paris\",\"addr:country\"=>\"FR\",\"addr:housenumber\"=>\"6\",\"addr:postcode\"=>\"75004\",\"addr:street\"=>\"Place des Vosges\",\"email\"=>\"maisonvictorhugo@paris.fr\",\"fee\"=>\"no\",\"internet_access\"=>\"wlan\",\"internet_access:fee\"=>\"no\",\"internet_access:operator\"=>\"Mairie de Paris\",\"name:ru\"=>\"Дом-музей Виктора Гюго\",\"opening_hours\"=>\"Tu-Su 10:00-18:00\",\"phone\"=>\"+33 1 42 72 10 16\",\"ref:FR:museofile\"=>\"M1114\",\"source:internet_access\"=>\"Paris Open Data\",\"tourism\"=>\"museum\",\"website\"=>\"http://www.paris.fr/musees/\",\"wheelchair\"=>\"no\",\"wikidata\"=>\"Q2599177\",\"wikipedia\"=>\"fr:Maison de Victor Hugo\"" }, "geometry": { "type": "Point", "coordinates": [ 2.3661103, 48.8548144 ] } },
{ "type": "Feature", "properties": { "osm_id": "257746377", "name": "Musée de la Carte à Jouer et Galerie d'Histoire de la Ville", "other_tags": "\"addr:housenumber\"=>\"16\",\"addr:street\"=>\"Rue Auguste Gervais\",\"contact:email\"=>\"musee@ville-issy.fr\",\"contact:phone\"=>\"+33 1 41 23 83 60\",\"contact:website\"=>\"https://www.museecarteajouer.com/\",\"opening_hours\"=>\"We-Fr 11:00-17:00, Su-Sa 14:00-18:00\",\"tourism\"=>\"museum\",\"wheelchair\"=>\"yes\",\"wikidata\"=>\"Q1530976\",\"wikipedia\"=>\"en:Musée Français de la Carte à Jouer\"" }, "geometry": { "type": "Point", "coordinates": [ 2.2734484, 48.8226911 ] } },
{ "type": "Feature", "properties": { "osm_id": "271998206", "name": "Ferme des Gondoles", "other_tags": "\"tourism\"=>\"zoo\"" }, "geometry": { "type": "Point", "coordinates": [ 2.4253608, 48.7620196 ] } },
{ "type": "Feature", "properties": { "osm_id": "323911913", "name": "Maison Européenne de la Photographie", "other_tags": "\"addr:city\"=>\"Paris\",\"addr:housenumber\"=>\"5-7\",\"addr:postcode\"=>\"75004\",\"addr:street\"=>\"Rue de Fourcy\",\"alt_name\"=>\"MEP\",\"amenity\"=>\"arts_centre\",\"opening_hours\"=>\"We-Su 11:00-20:00\",\"phone\"=>\"+33 1 44 78 75 00\",\"tourism\"=>\"museum\",\"website\"=>\"https://www.mep-fr.org/\",\"wheelchair\"=>\"limited\",\"wikidata\"=>\"Q3100297\",\"wikipedia\"=>\"fr:Maison européenne de la photographie\"" }, "geometry": { "type": "Point", "coordinates": [ 2.3589562, 48.8551205 ] } },
{ "type": "Feature", "properties": { "osm_id": "324299178", "name": "Musée de l'Eventail", "other_tags": "\"email\"=>\"contact@annehoguet.fr\",\"fax\"=>\"+33142083091\",\"fee\"=>\"full : 6.5; discount : 3.5\",\"level\"=>\"3\",\"official_name\"=>\"L’Atelier Hoguet - Musée de l’Éventail\",\"opening_hours\"=>\"Mo-We 14:00-18:00\",\"phone\"=>\"+33142089020\",\"tourism\"=>\"museum\",\"website\"=>\"http://annehoguet.fr/\",\"wheelchair\"=>\"no\",\"wikidata\"=>\"Q3329860\",\"wikipedia\"=>\"fr:Musée de l'Éventail\"" }, "geometry": { "type": "Point", "coordinates": [ 2.3546892, 48.8695018 ] } },
{ "type": "Feature", "properties": { "osm_id": "383735856", "name": "Parc animalier de l'Emprunt", "other_tags": "\"tourism\"=>\"zoo\"" }, "geometry": { "type": "Point", "coordinates": [ 2.7252819, 48.1895517 ] } },
{ "type": "Feature", "properties": { "osm_id": "392640847", "name": "Lavoir", "other_tags": "\"description\"=>\"Place where people would wash their clothes.  Now often used as an art Gallery.\",\"historic\"=>\"yes\",\"tourism\"=>\"museum\",\"website\"=>\"https://www.carrieres-sur-seine.fr/index.php/Plan+de+la+ville?idpage=238&idmetacontenu=96\"" }, "geometry": { "type": "Point", "coordinates": [ 2.1717676, 48.9022312 ] } },
{ "type": "Feature", "properties": { "osm_id": "410272989", "name": "Cité des Enfants (5-12 ans)", "other_tags": "\"fee\"=>\"yes\",\"level\"=>\"0\",\"tourism\"=>\"museum\",\"website\"=>\"http://www.cite-sciences.fr/fr/au-programme/expos-permanentes/la-cite-des-enfants/cite-des-enfants-5-12-ans/\",\"wheelchair\"=>\"yes\"" }, "geometry": { "type": "Point", "coordinates": [ 2.3886935, 48.8957352 ] } },
{ "type": "Feature", "properties": { "osm_id": "428145711", "name": "Musée de la Poupée", "other_tags": "\"addr:city\"=>\"Paris\",\"addr:housenumber\"=>\"7\",\"addr:postcode\"=>\"75003\",\"addr:street\"=>\"Impasse Berthaud\",\"fee\"=>\"full:8;children(3-11),handicap:4;student(12-25),unemployment, senior(+65):6\",\"fee:currency\"=>\"euro\",\"opening_hours\"=>\"Tu-Sa 10:00-18:45\",\"phone\"=>\"+331 42 72 73 11\",\"tourism\"=>\"museum\",\"website\"=>\"http://www.museedelapoupeeparis.com/\",\"wikidata\"=>\"Q3329948\",\"wikipedia\"=>\"fr:Musée de la Poupée - Au Petit Monde Ancien\"" }, "geometry": { "type": "Point", "coordinates": [ 2.3542965, 48.8616153 ] } },
{ "type": "Feature", "properties": { "osm_id": "464777467", "name": "Musée Archéologique Départemental", "other_tags": "\"tourism\"=>\"museum\"" }, "geometry": { "type": "Point", "coordinates": [ 1.8496944, 49.1089657 ] } },
{ "type": "Feature", "properties": { "osm_id": "493870538", "name": "Catacombes de Paris", "other_tags": "\"addr:city\"=>\"Paris\",\"addr:housenumber\"=>\"1\",\"addr:postcode\"=>\"75014\",\"addr:street\"=>\"Avenue du Colonel Henri Rol Tanguy\",\"fee\"=>\"yes\",\"name:de\"=>\"Katakomben von Paris\",\"name:en\"=>\"Catacombs of Paris\",\"name:fr\"=>\"Les Catacombes de Paris\",\"name:it\"=>\"Catacombe di Parigi\",\"name:ja\"=>\"カタコンブ\",\"name:ru\"=>\"Катакомбы Парижа\",\"name:zh\"=>\"巴黎地下墓穴\",\"opening_hours\"=>\"Tu-Su 10:00-20:30\",\"phone\"=>\"+33 1 43224763\",\"tourism\"=>\"museum\",\"website\"=>\"http://www.catacombes.paris.fr/\",\"wheelchair\"=>\"no\",\"wikidata\"=>\"Q28924\",\"wikipedia\"=>\"fr:Catacombes de Paris\"" }, "geometry": { "type": "Point", "coordinates": [ 2.3322959, 48.8337437 ] } },
{ "type": "Feature", "properties": { "osm_id": "551431911", "name": "Musée de la Résistance et de la Déportation", "other_tags": "\"tourism\"=>\"museum\"" }, "geometry": { "type": "Point", "coordinates": [ 2.257114, 48.9441545 ] } },
{ "type": "Feature", "properties": { "osm_id": "577287841", "name": "Voyage au Temps des impressionnistes", "other_tags": "\"tourism\"=>\"museum\"" }, "geometry": { "type": "Point", "coordinates": [ 2.1661667, 49.0720566 ] } },
{ "type": "Feature", "properties": { "osm_id": "608719987", "name": "Centre commercial des Épinettes", "other_tags": "\"addr:city\"=>\"Issy-les-Moulineaux\",\"addr:housenumber\"=>\"54\",\"addr:postcode\"=>\"92130\",\"addr:street\"=>\"Rue d'Erevan\",\"shop\"=>\"mall\"" }, "geometry": { "type": "Point", "coordinates": [ 2.2602284, 48.8174466 ] } },
{ "type": "Feature", "properties": { "osm_id": "620845441", "name": "Passage des Panoramas", "other_tags": "\"addr:city\"=>\"Paris\",\"addr:postcode\"=>\"75002\",\"addr:street\"=>\"Passage des Panoramas\",\"opening_hours\"=>\"Mo-Su 06:00-00:00\",\"shop\"=>\"mall\",\"toilets\"=>\"no\",\"wikidata\"=>\"Q3141829\"" }, "geometry": { "type": "Point", "coordinates": [ 2.3417482, 48.8709577 ] } },
{ "type": "Feature", "properties": { "osm_id": "662757314", "name": "Musée Rosa Bonheur", "other_tags": "\"addr:city\"=>\"Thomery\",\"addr:housenumber\"=>\"12\",\"addr:postcode\"=>\"77810\",\"addr:street\"=>\"Rue Rosa Bonheur\",\"alt_name\"=>\"Musée de l'atelier Rosa-Bonheur\",\"email\"=>\"contact@chateau-rosa-bonheur.fr\",\"phone\"=>\"+33 9 87 12 35 04\",\"tourism\"=>\"museum\",\"website\"=>\"https://www.chateau-rosa-bonheur.fr/\",\"wikidata\"=>\"Q1665255\",\"wikipedia\"=>\"fr:Musée de l'atelier Rosa Bonheur\"" }, "geometry": { "type": "Point", "coordinates": [ 2.7833498, 48.3962111 ] } },
{ "type": "Feature", "properties": { "osm_id": "692062343", "name": "Musée du Graffiti", "other_tags": "\"addr:city\"=>\"Paris\",\"addr:housenumber\"=>\"20\",\"addr:postcode\"=>\"75002\",\"addr:street\"=>\"Passage du Ponceau\",\"description\"=>\"virtual museum\",\"tourism\"=>\"museum\",\"website\"=>\"http://arek.fr/museedugrafitti\"" }, "geometry": { "type": "Point", "coordinates": [ 2.3525271, 48.8675776 ] } },
{ "type": "Feature", "properties": { "osm_id": "802009091", "name": "Musée des Années 30", "other_tags": "\"tourism\"=>\"museum\",\"wikidata\"=>\"Q3330124\",\"wikipedia\"=>\"fr:Musée des Années Trente\"" }, "geometry": { "type": "Point", "coordinates": [ 2.2398065, 48.8362469 ] } },
{ "type": "Feature", "properties": { "osm_id": "807097780", "name": "Musée du Petit Palais", "other_tags": "\"addr:city\"=>\"Paris\",\"addr:postcode\"=>\"75008\",\"addr:street\"=>\"Avenue Winston Churchill\",\"name:de\"=>\"Museum im Kleinen Palast\",\"name:ru\"=>\"Малый дворец\",\"name:zh\"=>\"巴黎小皇宮\",\"opening_hours\"=>\"Tu-Su 10:00-18:00\",\"phone\"=>\"+33153434000\",\"tourism\"=>\"museum\",\"website\"=>\"http://www.petitpalais.paris.fr/\",\"wheelchair\"=>\"yes\",\"wikidata\"=>\"Q820892\",\"wikipedia\"=>\"fr:Petit Palais\"" }, "geometry": { "type": "Point", "coordinates": [ 2.3145051, 48.8660456 ] } },
{ "type": "Feature", "properties": { "osm_id": "823061902", "name": "Musée National de Port Royal des Champs", "other_tags": "\"addr:country\"=>\"FR\",\"addr:postcode\"=>\"78114\",\"addr:street\"=>\"Route des Granges\",\"email\"=>\"musee.port-royal@culture.gouv.fr\",\"fax\"=>\"+33 1 30 64 79 55\",\"official_name\"=>\"Musée Nal de Port-Royal des Champs à Magny-les-Hameaux\",\"opening_hours\"=>\"Mo-Fr 09:45-12:00,14:00-17:30; Sa,Su 10:30-18:00\",\"phone\"=>\"+33 1 30 43 73 05\",\"ref:FR:museofile\"=>\"M5045\",\"tourism\"=>\"museum\",\"website\"=>\"http://www.musee-portroyal.fr\",\"wikidata\"=>\"Q3330694\",\"wikipedia\"=>\"fr:Musée national de Port-Royal des Champs\"" }, "geometry": { "type": "Point", "coordinates": [ 2.0152509, 48.7479939 ] } },
{ "type": "Feature", "properties": { "osm_id": "895871273", "name": "Musée de la Légion d'Honneur et des Ordres de Chevalerie", "other_tags": "\"entrance\"=>\"yes\",\"fax\"=>\"+33140628496\",\"name:ru\"=>\"Музей Почетного легиона и рыцарских орденов\",\"official_name\"=>\"Musée national de la Légion d'Honneur et des Ordres de Chevalerie\",\"opening_hours\"=>\"We-Su 13:00-18:00; Jan 1,May 1,Aug 15,Nov 1,Dec 25 off\",\"phone\"=>\"+33 1 40 62 84 25\",\"ref:FR:museofile\"=>\"M5059\",\"tourism\"=>\"museum\",\"website\"=>\"http://www.legiondhonneur.fr/fr\",\"wheelchair\"=>\"no\",\"wikidata\"=>\"Q3329915\",\"wikipedia\"=>\"fr:Musée de la Légion d'honneur\"" }, "geometry": { "type": "Point", "coordinates": [ 2.3247488, 48.8602845 ] } },
{ "type": "Feature", "properties": { "osm_id": "910390736", "name": "Conciergerie", "other_tags": "\"historic\"=>\"castle\",\"name:el\"=>\"Κονσιερζερί\",\"name:he\"=>\"הקונסיירז'רי\",\"name:ko\"=>\"콩시에르쥬리\",\"name:ru\"=>\"Консьержери\",\"name:uk\"=>\"Консьєржері\",\"name:zh\"=>\"巴黎古監獄\",\"opening_hours\"=>\"Mo-Su 09:30-18:00\",\"operator\"=>\"Centre des monuments nationaux\",\"tourism\"=>\"museum\",\"website\"=>\"http://conciergerie.monuments-nationaux.fr/\",\"wikidata\"=>\"Q138101\"" }, "geometry": { "type": "Point", "coordinates": [ 2.3460263, 48.8559492 ] } },
{ "type": "Feature", "properties": { "osm_id": "939134593", "name": "HEMA", "other_tags": "\"addr:housenumber\"=>\"98\",\"brand\"=>\"HEMA\",\"brand:wikidata\"=>\"Q903805\",\"brand:wikipedia\"=>\"en:HEMA (store)\",\"opening_hours\"=>\"Mo-Sa 10:00-20:00\",\"shop\"=>\"department_store\"" }, "geometry": { "type": "Point", "coordinates": [ 2.2406706, 48.8383961 ] } },
{ "type": "Feature", "properties": { "osm_id": "975987576", "name": "Musée du Vin", "other_tags": "\"contact:city\"=>\"Paris\",\"contact:housenumber\"=>\"5\",\"contact:postcode\"=>\"75016\",\"contact:street\"=>\"Square Charles Dickens\",\"phone\"=>\"+33145256326\",\"tourism\"=>\"museum\",\"website\"=>\"http://museeduvinparis.com/\",\"wikidata\"=>\"Q2561076\",\"wikipedia\"=>\"fr:Musée du Vin (Paris)\"" }, "geometry": { "type": "Point", "coordinates": [ 2.284569, 48.8575222 ] } },
{ "type": "Feature", "properties": { "osm_id": "993828548", "name": "Musée de la Poste", "other_tags": "\"alt_name\"=>\"L’Adresse Musée de La Poste\",\"contact:website\"=>\"https://www.museedelaposte.fr\",\"description\"=>\"travaux 2017 boutique 21 avenue du Maine\",\"fare\"=>\"3.50–5.00 EUR\",\"fax\"=>\"+33 1 42 79 24 00\",\"name:ru\"=>\"Музей почты\",\"opening_hours\"=>\"Mo-Sa 10:00-18:00\",\"phone\"=>\"+33 1 42 79 24 24\",\"tourism\"=>\"museum\",\"website\"=>\"https://www.museedelaposte.fr\",\"wheelchair\"=>\"yes\",\"wikidata\"=>\"Q2445818\",\"wikipedia\"=>\"fr:L'Adresse Musée de La Poste\"" }, "geometry": { "type": "Point", "coordinates": [ 2.3172246, 48.8414574 ] } },
{ "type": "Feature", "properties": { "osm_id": "993828560", "name": "Galerie-musée Baccarat", "other_tags": "\"email\"=>\"patrimoine@baccarat.fr\",\"fare\"=>\"3.50-5.00 EUR\",\"name:be\"=>\"Музей Бакара\",\"name:ja\"=>\"バカラ美術館\",\"name:ru\"=>\"Музей Баккара\",\"opening_hours\"=>\"Mo 10:00-18:00; We-Sa 10:00-18:00\",\"phone\"=>\"+33 1 40 22 11 00\",\"tourism\"=>\"museum\",\"website\"=>\"https://www.baccarat.fr/fr/univers-baccarat/musees/gallery-opening-hours.htm\",\"wheelchair\"=>\"yes\",\"wikidata\"=>\"Q2992085\",\"wikipedia\"=>\"fr:Musée Baccarat (Paris)\"" }, "geometry": { "type": "Point", "coordinates": [ 2.2935696, 48.8677629 ] } },
{ "type": "Feature", "properties": { "osm_id": "1028569468", "name": "Salle des collections", "other_tags": "\"addr:street\"=>\"Rue du Cinéma\",\"contact:housenumber\"=>\"2\",\"indoor\"=>\"yes\",\"level\"=>\"-3\",\"museum\"=>\"cinema\",\"old_name\"=>\"Vidéothèque de Paris\",\"opening_hours\"=>\"Tu-Fr 13:00-21:00; Sa,Su 14:00-21:00\",\"operator\"=>\"Forum des Images\",\"tourism\"=>\"museum\",\"website\"=>\"https://www.forumdesimages.fr/\",\"wheelchair\"=>\"yes\",\"wikidata\"=>\"Q3078635\",\"wikipedia\"=>\"fr:Forum des images\"" }, "geometry": { "type": "Point", "coordinates": [ 2.3453019, 48.8625016 ] } },
{ "type": "Feature", "properties": { "osm_id": "1113966452", "name": "Les Galeries de Juvisy", "other_tags": "\"shop\"=>\"department_store\",\"wheelchair\"=>\"no\"" }, "geometry": { "type": "Point", "coordinates": [ 2.376966, 48.688007 ] } },
{ "type": "Feature", "properties": { "osm_id": "1142933435", "name": "Musée du Service de Santé des Armées", "other_tags": "\"addr:city\"=>\"Paris\",\"addr:housenumber\"=>\"1\",\"addr:postcode\"=>\"75005\",\"addr:street\"=>\"Place Alphonse Laveran\",\"opening_hours\"=>\"Jan-Jul,Sep-Dec: Tu-Su 12:00-18:00; Fr off; Jan 01,May 01,Dec 25 off\",\"tourism\"=>\"museum\",\"website\"=>\"http://www.ecole-valdegrace.sante.defense.gouv.fr/bibliotheque-musee/musee-du-service-de-sante-des-armees\",\"wikidata\"=>\"Q3330482\"" }, "geometry": { "type": "Point", "coordinates": [ 2.3414281, 48.8403652 ] } },
{ "type": "Feature", "properties": { "osm_id": "1157085175", "name": "Musée de la Défense", "other_tags": "\"layer\"=>\"4\",\"opening_hours\"=>\"Mo-Fr 10:00-18:00; Sa 10:00-19:00\",\"tourism\"=>\"museum\",\"website\"=>\"https://www.ladefense.fr/cat/tourisme/museedeladefense/\"" }, "geometry": { "type": "Point", "coordinates": [ 2.2422993, 48.8907734 ] } },
{ "type": "Feature", "properties": { "osm_id": "1172305381", "name": "Centre commercial des Trois Moulins", "other_tags": "\"shop\"=>\"mall\",\"website\"=>\"http://www.issy3moulins.com\"" }, "geometry": { "type": "Point", "coordinates": [ 2.2518087, 48.8208976 ] } },
{ "type": "Feature", "properties": { "osm_id": "1209090757", "name": "ferme ouverte de gally", "other_tags": "\"tourism\"=>\"zoo\",\"wheelchair\"=>\"yes\"" }, "geometry": { "type": "Point", "coordinates": [ 2.188919, 48.940667 ] } },
{ "type": "Feature", "properties": { "osm_id": "1209893702", "name": "Choco-Story - Le musée gourmand du chocolat", "other_tags": "\"email\"=>\"info@museeduchocolat.fr\",\"fax\"=>\"+33 1 42 29 65 08\",\"opening_hours\"=>\"Mo-Su 10:00-18:00; Jan 01: off; Dec 25: off\",\"phone\"=>\"+33 1 42 29 68 60\",\"tourism\"=>\"museum\",\"website\"=>\"https://www.museeduchocolat.fr\",\"wheelchair\"=>\"yes\",\"wikidata\"=>\"Q3330333\",\"wikipedia\"=>\"fr:Musée du Chocolat (Paris)\"" }, "geometry": { "type": "Point", "coordinates": [ 2.3500828, 48.8705899 ] } },
{ "type": "Feature", "properties": { "osm_id": "1232685418", "name": "Galeries Lafayette Maison", "other_tags": "\"addr:housenumber\"=>\"35\",\"addr:postcode\"=>\"75009\",\"addr:street\"=>\"Boulevard Haussmann\",\"name:zh\"=>\"老佛爷百货\",\"opening_hours\"=>\"Mo-Sa 09:30-20:30; Sa 11:00-19:00\",\"shop\"=>\"department_store\",\"wheelchair\"=>\"yes\"" }, "geometry": { "type": "Point", "coordinates": [ 2.3302487, 48.8732078 ] } },
{ "type": "Feature", "properties": { "osm_id": "1236409720", "name": "Phono Museum", "other_tags": "\"addr:housenumber\"=>\"53\",\"addr:postcode\"=>\"75009\",\"addr:street\"=>\"Boulevard de Rochechouart\",\"email\"=>\"phonomp@gmail.com\",\"fee\"=>\"yes\",\"museum\"=>\"technology,history\",\"opening_hours\"=>\"Th-Su 14:00-18:00\",\"phone\"=>\"+33 680615937\",\"subject\"=>\"phonograph\",\"tourism\"=>\"museum\",\"website\"=>\"http://phonomuseum.fr/\",\"wheelchair\"=>\"yes\"" }, "geometry": { "type": "Point", "coordinates": [ 2.3413659, 48.8821281 ] } },
{ "type": "Feature", "properties": { "osm_id": "1253177342", "name": "Maison de Banlieue et de l'Architecture", "other_tags": "\"tourism\"=>\"museum\"" }, "geometry": { "type": "Point", "coordinates": [ 2.3933889, 48.7116707 ] } },
{ "type": "Feature", "properties": { "osm_id": "1280351055", "name": "Musée Victor Aubert", "other_tags": "\"addr:city\"=>\"Maule\",\"addr:country\"=>\"FR\",\"addr:housenumber\"=>\"24\",\"addr:postcode\"=>\"78580\",\"addr:street\"=>\"Rue Quincampoix\",\"opening_hours\"=>\"Sa[1] 15:00-18:00; Su[1] 15:00-18:00; \\\"sur rendez-vous\\\"\",\"phone\"=>\"+33 1 30 90 61 49\",\"tourism\"=>\"museum\",\"website\"=>\"http://museeaubertmaule.free.fr/\"" }, "geometry": { "type": "Point", "coordinates": [ 1.84933, 48.908778 ] } },
{ "type": "Feature", "properties": { "osm_id": "1290290099", "name": "Musée de la ville", "other_tags": "\"opening_hours\"=>\"We-Sa 14:00-18:00\",\"tourism\"=>\"museum\",\"website\"=>\"http://www.museedelaville.agglo-sqy.fr/\",\"wikidata\"=>\"Q3330084\"" }, "geometry": { "type": "Point", "coordinates": [ 2.042426, 48.7831521 ] } },
{ "type": "Feature", "properties": { "osm_id": "1296750671", "name": "Cité de l'architecture et du patrimoine", "other_tags": "\"addr:city\"=>\"Paris\",\"addr:housenumber\"=>\"1\",\"addr:postcode\"=>\"75016\",\"addr:street\"=>\"Place du Trocadéro et du 11 Novembre 1918\",\"fare\"=>\"full:8;discount:6;free:under 18, Paris Museum Pass, 1st sunday of month, 18/25 ans ressortissants et étudiants de l'UE, les enseignants des 1er et 2nd degré, minimaux sociaux, demandeurs d’emploi, ICOM, ICOMOS, ICAM\",\"fare:currency\"=>\"euro\",\"fee\"=>\"yes\",\"name:ar\"=>\"متحف_العمارة_و_التراث_(فرنسا)\",\"name:en\"=>\"Architecture and Heritage City Museum\",\"name:fr\"=>\"Cité de l'Architecture et du Patrimoine\",\"name:zh\"=>\"法国建筑历史博物馆\",\"opening_hours\"=>\"Mo,We,Fr,Sa,Su 11:00-19:00; Th 11:00-21:00\",\"phone\"=>\"+33158515200\",\"short_name\"=>\"CAP\",\"tourism\"=>\"museum\",\"website\"=>\"http://www.citechaillot.fr/fr/\",\"wheelchair\"=>\"limited\",\"wikidata\"=>\"Q537515\",\"wikipedia\"=>\"fr:Cité de l'architecture et du patrimoine\"" }, "geometry": { "type": "Point", "coordinates": [ 2.2890051, 48.8629386 ] } },
{ "type": "Feature", "properties": { "osm_id": "1296754169", "name": "Musée de la Marine", "other_tags": "\"email\"=>\"infos.publics@musee-marine.fr\",\"fax\"=>\"+33153658103\",\"fee\"=>\"yes\",\"name:en\"=>\"National Museum of the Navy\",\"note:fr\"=>\"Fermeture des caisses 45 minutes avant\",\"opening_hours\"=>\"Mo,We,Th,Fr 11:00-18:00; Sa,Su 11:00-19:00; May 1 off; Dec 25 off; Jan 1 off; Tu off\",\"phone\"=>\"+33 1 53 65 69 69;+33 1 53 65 69 53\",\"tourism\"=>\"museum\",\"website\"=>\"http://www.musee-marine.fr\",\"wheelchair\"=>\"yes\",\"wikidata\"=>\"Q1286709\",\"wikipedia\"=>\"fr:Musée national de la Marine\"" }, "geometry": { "type": "Point", "coordinates": [ 2.2873421, 48.8618163 ] } },
{ "type": "Feature", "properties": { "osm_id": "1336873192", "name": "Musée de la Franc-Maçonnerie", "other_tags": "\"phone\"=>\"+33 1 45 23 20 92\",\"ref:FR:museofile\"=>\"M0366\",\"survey:date\"=>\"2018-05-05\",\"tourism\"=>\"museum\",\"website\"=>\"http://www.museefm.org/\",\"wikidata\"=>\"Q2597719\",\"wikipedia\"=>\"fr:Musée de la franc-maçonnerie\"" }, "geometry": { "type": "Point", "coordinates": [ 2.3431481, 48.8749151 ] } },
{ "type": "Feature", "properties": { "osm_id": "1359954338", "name": "Chambre de Van Gogh", "other_tags": "\"tourism\"=>\"museum\"" }, "geometry": { "type": "Point", "coordinates": [ 2.1715784, 49.0709727 ] } },
{ "type": "Feature", "properties": { "osm_id": "1367996793", "name": "Espace des Sciences Pierre-Gilles de Gennes", "other_tags": "\"facebook\"=>\"https://www.facebook.com/espgg/\",\"opening_hours\"=>\"Tu-Sa 14:00-17:00\",\"tourism\"=>\"museum\",\"website\"=>\"https://www.espgg.org\",\"wikidata\"=>\"Q40772746\"" }, "geometry": { "type": "Point", "coordinates": [ 2.3473052, 48.8411575 ] } },
{ "type": "Feature", "properties": { "osm_id": "1398102256", "name": "Musée de Rueil-Malmaison", "other_tags": "\"tourism\"=>\"museum\"" }, "geometry": { "type": "Point", "coordinates": [ 2.1814442, 48.8778152 ] } },
{ "type": "Feature", "properties": { "osm_id": "1399910027", "name": "Fondation Le Corbusier", "other_tags": "\"addr:postcode\"=>\"75016\",\"opening_hours\"=>\"Tu-Sa 10:00-18:00; Mo 13:30-18:00\",\"phone\"=>\"+33 1 42 88 41 53\",\"tourism\"=>\"museum\",\"website\"=>\"http://www.fondationlecorbusier.asso.fr\",\"wikidata\"=>\"Q1435661\"" }, "geometry": { "type": "Point", "coordinates": [ 2.265225, 48.851907 ] } },
{ "type": "Feature", "properties": { "osm_id": "1399929421", "name": "Musée de la Contrefaçon", "other_tags": "\"addr:city\"=>\"Paris\",\"addr:housenumber\"=>\"16\",\"addr:postcode\"=>\"75116\",\"addr:street\"=>\"Rue de la Faisanderie\",\"name:ja\"=>\"贋造博物館\",\"opening_hours\"=>\"Tu-Su 14:00-17:30\",\"operator\"=>\"UNIFAB\",\"phone\"=>\"+33 1 56 26 14 03\",\"tourism\"=>\"museum\",\"website\"=>\"https://musee-contrefacon.com/\",\"wikidata\"=>\"Q2449709\",\"wikipedia\"=>\"fr:Musée de la Contrefaçon\"" }, "geometry": { "type": "Point", "coordinates": [ 2.2765175, 48.8703234 ] } },
{ "type": "Feature", "properties": { "osm_id": "1399940600", "name": "Musée Dapper", "other_tags": "\"name:ru\"=>\"Музей Даппера\",\"phone\"=>\"+33145009175\",\"tourism\"=>\"museum\",\"website\"=>\"http://www.dapper.com.fr\",\"wikidata\"=>\"Q2023566\",\"wikipedia\"=>\"fr:Musée Dapper\"" }, "geometry": { "type": "Point", "coordinates": [ 2.2881063, 48.871644 ] } },
{ "type": "Feature", "properties": { "osm_id": "1419519631", "name": "Musée des Arts Forains", "other_tags": "\"addr:city\"=>\"Paris\",\"addr:housenumber\"=>\"53\",\"addr:postcode\"=>\"75012\",\"addr:street\"=>\"Avenue des Terroirs de France\",\"email\"=>\"diane@pavillons-de-bercy.com\",\"fax\"=>\"+33143401689\",\"fee\"=>\"full:16;discount:8\",\"note:fr\"=>\"Tarif réduit jusque 11 ans; se visite sur rdv uniquement\",\"phone\"=>\"+33143401622\",\"tourism\"=>\"museum\",\"website\"=>\"http://www.pavillons-de-bercy.com/\",\"wheelchair\"=>\"limited\",\"wikidata\"=>\"Q899223\",\"wikipedia\"=>\"fr:Musée des Arts forains\"" }, "geometry": { "type": "Point", "coordinates": [ 2.3893382, 48.8327663 ] } },
{ "type": "Feature", "properties": { "osm_id": "1425940779", "name": "Musée Adzak - Espace d'Art International", "other_tags": "\"phone\"=>\"+33145430698\",\"tourism\"=>\"museum\",\"wikidata\"=>\"Q3329038\"" }, "geometry": { "type": "Point", "coordinates": [ 2.3141843, 48.8302877 ] } },
{ "type": "Feature", "properties": { "osm_id": "1425982378", "name": "Musée Arménien de France", "other_tags": "\"access\"=>\"no\",\"tourism\"=>\"museum\",\"website\"=>\"https://www.le-maf.com/\",\"wikidata\"=>\"Q2090916\",\"wikipedia\"=>\"fr:Musée arménien de France\"" }, "geometry": { "type": "Point", "coordinates": [ 2.2814131, 48.8716204 ] } },
{ "type": "Feature", "properties": { "osm_id": "1426016793", "name": "Musée Adam Mickiewicz", "other_tags": "\"addr:street\"=>\"Rue d'Arcole\",\"phone\"=>\"+33 1 43 54 35 61\",\"tourism\"=>\"museum\",\"website\"=>\"http://www.bibliotheque-polonaise-paris-shlp.fr\",\"wikidata\"=>\"Q3051109\"" }, "geometry": { "type": "Point", "coordinates": [ 2.355588, 48.8513494 ] } },
{ "type": "Feature", "properties": { "osm_id": "1426016798", "name": "Musée Bible et Terre Sainte", "other_tags": "\"phone\"=>\"+33145440955\",\"tourism\"=>\"museum\",\"website\"=>\"https://www.icp.fr/\",\"wikidata\"=>\"Q3056566\"" }, "geometry": { "type": "Point", "coordinates": [ 2.3294718, 48.8483211 ] } },
{ "type": "Feature", "properties": { "osm_id": "1426025878", "name": "Musée Bouilhet-Christofle - Musée d'Orfèvrerie", "other_tags": "\"phone\"=>\"+33149224115\",\"tourism\"=>\"museum\",\"website\"=>\"https://www.christofle.com/\",\"wikidata\"=>\"Q3329101\"" }, "geometry": { "type": "Point", "coordinates": [ 2.322399, 48.8677268 ] } },
{ "type": "Feature", "properties": { "osm_id": "1426089606", "name": "Musée Clemenceau", "other_tags": "\"phone\"=>\"+33145205341\",\"tourism\"=>\"museum\",\"website\"=>\"https://musee-clemenceau.fr/\",\"wikidata\"=>\"Q3329119\"" }, "geometry": { "type": "Point", "coordinates": [ 2.285142, 48.8591945 ] } },
{ "type": "Feature", "properties": { "osm_id": "1426093837", "name": "Musée-Librairie du Compagnonnage", "other_tags": "\"phone\"=>\"+33 1 43 26 25 03\",\"tourism\"=>\"museum\",\"website\"=>\"http://www.compagnons.org/\",\"wikidata\"=>\"Q3329030\"" }, "geometry": { "type": "Point", "coordinates": [ 2.335005, 48.8522269 ] } },
{ "type": "Feature", "properties": { "osm_id": "1426135888", "name": "Musée Valentin Haüy", "other_tags": "\"tourism\"=>\"museum\",\"website\"=>\"https://www.avh.asso.fr/\",\"wikidata\"=>\"Q3329379\",\"wikipedia\"=>\"fr:Musée Valentin-Haüy\"" }, "geometry": { "type": "Point", "coordinates": [ 2.3140391, 48.8476741 ] } },
{ "type": "Feature", "properties": { "osm_id": "1426176059", "name": "Musée d'histoire de la Médecine", "other_tags": "\"opening_hours\"=>\"Mo-We,Fr,Sa 14:00-17:30\",\"tourism\"=>\"museum\",\"website\"=>\"http://www.bium.univ-paris5.fr/musee/\",\"wikidata\"=>\"Q3329671\"" }, "geometry": { "type": "Point", "coordinates": [ 2.3409022, 48.8513247 ] } },
{ "type": "Feature", "properties": { "osm_id": "1426215340", "name": "Musée Maillol", "other_tags": "\"addr:city\"=>\"Paris\",\"addr:housenumber\"=>\"59\",\"addr:postcode\"=>\"75007\",\"addr:street\"=>\"Rue de Grenelle\",\"phone\"=>\"+33142225958\",\"tourism\"=>\"museum\",\"website\"=>\"https://www.museemaillol.com/\",\"wheelchair\"=>\"limited\",\"wikidata\"=>\"Q946883\"" }, "geometry": { "type": "Point", "coordinates": [ 2.3248616, 48.8547304 ] } },
{ "type": "Feature", "properties": { "osm_id": "1426215341", "name": "Musée des Lettres et Manuscrits", "other_tags": "\"contact:housenumber\"=>\"222\",\"contact:postcode\"=>\"75007\",\"contact:street\"=>\"Boulevard Saint-Germain\",\"phone\"=>\"+33 1 42 22 48 48\",\"tourism\"=>\"museum\",\"website\"=>\"https://www.museedeslettres.fr/\",\"wikidata\"=>\"Q2407603\",\"wikipedia\"=>\"fr:Musée des lettres et manuscrits\"" }, "geometry": { "type": "Point", "coordinates": [ 2.3276941, 48.8554427 ] } },
{ "type": "Feature", "properties": { "osm_id": "1426245243", "name": "Musée du Montparnasse - Villa Vassilieff", "other_tags": "\"addr:city\"=>\"Paris\",\"addr:housenumber\"=>\"21\",\"addr:postcode\"=>\"75015\",\"addr:street\"=>\"Avenue du Maine\",\"email\"=>\"info@vil­la­vas­si­lieff.net\",\"fee\"=>\"no\",\"opening_hours\"=>\"Tu-Sa 11:00-19:00\",\"phone\"=>\"+33 1 43 25 88 32\",\"tourism\"=>\"museum\",\"website\"=>\"https://www.villavassilieff.net\",\"wheelchair\"=>\"yes\",\"wikidata\"=>\"Q1758416\"" }, "geometry": { "type": "Point", "coordinates": [ 2.3207897, 48.8435077 ] } },
{ "type": "Feature", "properties": { "osm_id": "1426245245", "name": "Musée de Minéralogie", "other_tags": "\"fare\"=>\"full:6 discount:3\",\"name:de\"=>\"Museum für Mineralogie\",\"name:en\"=>\"Mineralogy Museum\",\"opening_hours\"=>\"Tu-Fr 13:30-18:00; Sa 10:00-12:30,14:00-17:00\",\"phone\"=>\"+33140519290\",\"tourism\"=>\"museum\",\"website\"=>\"http://www.musee.mines-paristech.fr/\",\"wheelchair\"=>\"limited\",\"wikidata\"=>\"Q3330098\"" }, "geometry": { "type": "Point", "coordinates": [ 2.3395974, 48.8456499 ] } },
{ "type": "Feature", "properties": { "osm_id": "1426245253", "name": "Musée Moissan", "other_tags": "\"tourism\"=>\"museum\",\"website\"=>\"https://www.paris.fr/\",\"wikidata\"=>\"Q3329289\"" }, "geometry": { "type": "Point", "coordinates": [ 2.3362665, 48.8434624 ] } },
{ "type": "Feature", "properties": { "osm_id": "1426281644", "name": "Bibliothèque-Musée de l'Opéra", "other_tags": "\"name:ko\"=>\"오페라\",\"opening_hours\"=>\"Mo-Su 10:00-17:00\",\"phone\"=>\"+33153793747\",\"tourism\"=>\"museum\",\"website\"=>\"https://www.bnf.fr/\",\"wheelchair\"=>\"yes\",\"wikidata\"=>\"Q2717848\",\"wikipedia\"=>\"fr:Bibliothèque-musée de l'Opéra\"" }, "geometry": { "type": "Point", "coordinates": [ 2.331212, 48.871882 ] } },
{ "type": "Feature", "properties": { "osm_id": "1426816231", "name": "Musée Pierre Marly - Lunettes et Lorgnettes", "other_tags": "\"tourism\"=>\"museum\"" }, "geometry": { "type": "Point", "coordinates": [ 2.3307909, 48.8656784 ] } },
{ "type": "Feature", "properties": { "osm_id": "1426816232", "name": "Musée de la Préfecture de Police", "other_tags": "\"fee\"=>\"no\",\"level\"=>\"3\",\"phone\"=>\"+33144415250\",\"tourism\"=>\"museum\",\"website\"=>\"https://www.prefecturedepolice.interieur.gouv.fr\",\"wikidata\"=>\"Q642825\"" }, "geometry": { "type": "Point", "coordinates": [ 2.3483534, 48.8494311 ] } },
{ "type": "Feature", "properties": { "osm_id": "1454661149", "name": "Centre commercial de la Sourderie", "other_tags": "\"shop\"=>\"mall\"" }, "geometry": { "type": "Point", "coordinates": [ 2.040202, 48.7697382 ] } },
{ "type": "Feature", "properties": { "osm_id": "1482437177", "name": "Musée Lambinet", "other_tags": "\"description\"=>\"Ancien hôtel Lambinet, actuellement musée Lambinet\",\"fax\"=>\"+33 1 39 51 90 88\",\"fee\"=>\"full 4;discount 2.5;free 1st sunday of month\",\"heritage\"=>\"2\",\"heritage:operator\"=>\"mhs\",\"image\"=>\"https://commons.wikimedia.org/wiki/Category:Mus%C3%A9e_Lambinet\",\"mhs:inscription_date\"=>\"1944-04-18\",\"name:zh\"=>\"凡尔赛宫\",\"opening_hours\"=>\"Mo-Su,PH 14:00-18:00; Fr off; Jan 01,easter,easter +1 day,May 01,May 08,easter +39 days,easter +49 days,easter +50 days,Jul 14,Aug 15,Nov 01,Nov 11,Dec 25 off\",\"phone\"=>\"+33 1 39 50 30 32\",\"ref:mhs\"=>\"PA00087695\",\"source:heritage\"=>\"data.gouv.fr:Ministère de la Culture - 04/2015\",\"tourism\"=>\"museum\",\"website\"=>\"https://www.versailles-tourisme.com/decouvrir/patrimoine-chateau-ville/les-incontournables/le-musee-lambinet.html\",\"wheelchair\"=>\"partial\",\"wikidata\"=>\"Q3329245\",\"wikipedia\"=>\"fr:Musée Lambinet\"" }, "geometry": { "type": "Point", "coordinates": [ 2.1305005, 48.8087784 ] } },
{ "type": "Feature", "properties": { "osm_id": "1606575931", "name": "Centre Culturel Suisse", "other_tags": "\"tourism\"=>\"museum\",\"wikidata\"=>\"Q2945014\"" }, "geometry": { "type": "Point", "coordinates": [ 2.3597684, 48.8585275 ] } },
{ "type": "Feature", "properties": { "osm_id": "1620203330", "name": "Musée du Domaine Départemental de Sceaux", "other_tags": "\"alt_name\"=>\"Musée du Domaine départemental de Sceaux\",\"email\"=>\"museeidf@cg92.fr\",\"phone\"=>\"+33141872950\",\"ref:FR:museofile\"=>\"M0417\",\"tourism\"=>\"museum\",\"website\"=>\"http://domaine-de-sceaux.hauts-de-seine.fr\",\"wikidata\"=>\"Q3329858\",\"wikipedia\"=>\"fr:Musée de l'Île-de-France\"" }, "geometry": { "type": "Point", "coordinates": [ 2.300099, 48.7742577 ] } },
{ "type": "Feature", "properties": { "osm_id": "1670553012", "name": "Lancel", "other_tags": "\"addr:city\"=>\"Paris\",\"addr:street\"=>\"Boulevard des Capucines\",\"opening_hours\"=>\"Mo-Sa 10:00-19:00; Su 11:00-19:00\",\"shop\"=>\"department_store\",\"wheelchair\"=>\"yes\"" }, "geometry": { "type": "Point", "coordinates": [ 2.3326961, 48.8709226 ] } },
{ "type": "Feature", "properties": { "osm_id": "1730374717", "other_tags": "\"entrance\"=>\"yes\",\"operator\"=>\"public\",\"tourism\"=>\"museum\"" }, "geometry": { "type": "Point", "coordinates": [ 2.3531031, 48.6742447 ] } },
{ "type": "Feature", "properties": { "osm_id": "1733134564", "name": "Musée de l'Hôtel Dieu", "other_tags": "\"addr:city\"=>\"Mantes-la-Jolie\",\"addr:country\"=>\"FR\",\"addr:housenumber\"=>\"1\",\"addr:postcode\"=>\"78200\",\"addr:street\"=>\"Rue Thiers\",\"fax\"=>\"+33 1 34 78 86 65\",\"opening_hours\"=>\"Mo-Th 09:00-12:00,14:00-18:00; Tu off; Fr-Su 14:00-18:00\",\"phone\"=>\"+33 1 34 78 86 60\",\"tourism\"=>\"museum\",\"website\"=>\"http://www.manteslajolie.fr/MUSEE%20DE%20LHOTELDIEU\"" }, "geometry": { "type": "Point", "coordinates": [ 1.7194536, 48.9901391 ] } },
{ "type": "Feature", "properties": { "osm_id": "1733168329", "name": "Pavillon Duhamel", "other_tags": "\"tourism\"=>\"museum\"" }, "geometry": { "type": "Point", "coordinates": [ 1.7148083, 48.9874885 ] } },
{ "type": "Feature", "properties": { "osm_id": "1743396701", "name": "Musée Claude Debussy", "other_tags": "\"addr:city\"=>\"Saint-Germain-en-Laye\",\"addr:housenumber\"=>\"38\",\"addr:postcode\"=>\"78100\",\"addr:street\"=>\"Rue au Pain\",\"tourism\"=>\"museum\",\"wikidata\"=>\"Q3329114\",\"wikipedia\"=>\"fr:Musée Claude-Debussy\"" }, "geometry": { "type": "Point", "coordinates": [ 2.0926968, 48.8968516 ] } },
{ "type": "Feature", "properties": { "osm_id": "1787252941", "name": "Centre Culturel de Méréville", "other_tags": "\"tourism\"=>\"museum\"" }, "geometry": { "type": "Point", "coordinates": [ 2.0896603, 48.3190519 ] } },
{ "type": "Feature", "properties": { "osm_id": "1788374144", "name": "Musée de Nogent-sur-Marne", "other_tags": "\"addr:city\"=>\"Nogent-sur-Marne\",\"addr:housenumber\"=>\"36\",\"addr:postcode\"=>\"94130\",\"addr:street\"=>\"Boulevard Gallieni\",\"email\"=>\"musee@ville-nogentsurmarne.fr\",\"fee\"=>\"no\",\"opening_hours\"=>\"Tu-Th 14:00-18:00; Sa 10:00-12:00,14:00-18:00, Su 14:00-18:00\",\"phone\"=>\"+33 1 48 75 51 25\",\"ref:FR:museofile\"=>\"M0427\",\"tourism\"=>\"museum\",\"website\"=>\"http://www.musee-nogentsurmarne.fr/\",\"wikidata\"=>\"Q3329734\"" }, "geometry": { "type": "Point", "coordinates": [ 2.4849183, 48.840397 ] } },
{ "type": "Feature", "properties": { "osm_id": "1789075155", "name": "Maison du Cresson", "other_tags": "\"tourism\"=>\"museum\"" }, "geometry": { "type": "Point", "coordinates": [ 2.0899552, 48.3039176 ] } },
{ "type": "Feature", "properties": { "osm_id": "1806106282", "name": "Musée de l’Histoire de France", "other_tags": "\"name:ru\"=>\"Музей истории Франции\",\"opening_hours:covid19\"=>\"open\",\"tourism\"=>\"museum\",\"website\"=>\"http://www.museehistoiredefrance.fr/index.php?option=com_musee&cid=3&view=detail\",\"wikidata\"=>\"Q3329787\",\"wikipedia\"=>\"fr:Musée de l'Histoire de France (Versailles)\"" }, "geometry": { "type": "Point", "coordinates": [ 2.1208461, 48.8043021 ] } },
{ "type": "Feature", "properties": { "osm_id": "1818590748", "name": "Musée de la Renaissance", "other_tags": "\"fee\"=>\"yes\",\"opening_hours\"=>\"PH,We-Mo 09:30-12:45,14:00-17:45\",\"tourism\"=>\"museum\"" }, "geometry": { "type": "Point", "coordinates": [ 2.3783149, 49.017142 ] } },
{ "type": "Feature", "properties": { "osm_id": "1820254837", "name": "Musée Naval", "other_tags": "\"tourism\"=>\"museum\"" }, "geometry": { "type": "Point", "coordinates": [ 2.3722982, 48.9930419 ] } },
{ "type": "Feature", "properties": { "osm_id": "1863066218", "name": "Domaine de Santeny", "other_tags": "\"shop\"=>\"mall\"" }, "geometry": { "type": "Point", "coordinates": [ 2.5753009, 48.7292335 ] } },
{ "type": "Feature", "properties": { "osm_id": "1863067130", "other_tags": "\"shop\"=>\"mall\"" }, "geometry": { "type": "Point", "coordinates": [ 2.5532289, 48.7369694 ] } },
{ "type": "Feature", "properties": { "osm_id": "1913411918", "name": "Le trésor de Notre-Dame", "other_tags": "\"access\"=>\"no\",\"contact:website\"=>\"http://www.notredamedeparis.fr/spip.php?rubrique21\",\"fee\"=>\"yes\",\"name:en\"=>\"Notre Dame Treasure\",\"name:es\"=>\"El Tesoro de Notre Dame\",\"name:fr\"=>\"Le Trésor de Notre-Dame\",\"name:it\"=>\"Il Tesoro di Notre-Dame\",\"opening_hours\"=>\"Mo-Fr 09:30-18:00; Sa 09:30-18:30; Su 13:30-18:30\",\"tourism\"=>\"museum\"" }, "geometry": { "type": "Point", "coordinates": [ 2.3500601, 48.8526313 ] } },
{ "type": "Feature", "properties": { "osm_id": "1916695536", "name": "Musée Départemental des Sapeurs-Pompiers du Val-d'Oise", "other_tags": "\"fee\"=>\"yes\",\"tourism\"=>\"museum\"" }, "geometry": { "type": "Point", "coordinates": [ 2.0628578, 49.0657393 ] } },
{ "type": "Feature", "properties": { "osm_id": "1999876938", "name": "Printemps Homme", "other_tags": "\"atm\"=>\"no\",\"brand\"=>\"Printemps\",\"internet_access\"=>\"no\",\"shop\"=>\"department_store\",\"wheelchair\"=>\"limited\"" }, "geometry": { "type": "Point", "coordinates": [ 2.3281528, 48.8743309 ] } },
{ "type": "Feature", "properties": { "osm_id": "2110670573", "other_tags": "\"tourism\"=>\"museum\"" }, "geometry": { "type": "Point", "coordinates": [ 2.5460737, 48.5364979 ] } },
{ "type": "Feature", "properties": { "osm_id": "2124341548", "name": "Printemps", "other_tags": "\"branch\"=>\"Nation\",\"brand\"=>\"Printemps\",\"brand:wikidata\"=>\"Q1535260\",\"opening_hours\"=>\"Mo-We 10:00-19:30, Th 10:00-21:00, Fr,Sa 10:00-19:30\",\"shop\"=>\"department_store\",\"wheelchair\"=>\"yes\"" }, "geometry": { "type": "Point", "coordinates": [ 2.4012959, 48.848311 ] } },
{ "type": "Feature", "properties": { "osm_id": "2142325065", "name": "Galerie Municipale Julio González", "other_tags": "\"addr:housenumber\"=>\"21\",\"tourism\"=>\"museum\"" }, "geometry": { "type": "Point", "coordinates": [ 2.3378674, 48.8067351 ] } },
{ "type": "Feature", "properties": { "osm_id": "2146085910", "name": "Musée National d'Art Moderne", "other_tags": "\"fee\"=>\"yes\",\"internet_access\"=>\"wlan\",\"internet_access:fee\"=>\"no\",\"internet_access:ssid\"=>\"CentrePompidou\",\"level\"=>\"4;5\",\"museum\"=>\"art\",\"museum_type\"=>\"national\",\"official_name\"=>\"Musée national d’art moderne - Centre de création industrielle\",\"opening_hours\"=>\"Mo,We-Su 11:00-21:00\",\"operator:type\"=>\"public\",\"short_name\"=>\"MNAM\",\"tourism\"=>\"museum\",\"tourism:visitors\"=>\"3800000\",\"website\"=>\"https://www.centrepompidou.fr/cpv/ressource.action?param.id=FR_R-89fd49e847165bc78d564f6dbeb6777&param.idSource=FR_E-2ab598d3369ad7a58ead7e6be32ba7b\",\"wheelchair\"=>\"yes\",\"wikidata\"=>\"Q1895953\",\"wikipedia\"=>\"en:Musée National d'Art Moderne\"" }, "geometry": { "type": "Point", "coordinates": [ 2.3522598, 48.860324 ] } },
{ "type": "Feature", "properties": { "osm_id": "2177750355", "name": "Château-Musée de Nemours", "other_tags": "\"official_name\"=>\"Château musée de Nemours\",\"phone\"=>\"+33 1 64 28 27 42\",\"ref:FR:museofile\"=>\"M0381\",\"tourism\"=>\"museum\",\"website\"=>\"http://www.nemours.fr/culture-et-sport/le-chateau-musee\",\"wikidata\"=>\"Q2970121\",\"wikipedia\"=>\"fr:Château de Nemours\"" }, "geometry": { "type": "Point", "coordinates": [ 2.6970907, 48.2655865 ] } },
{ "type": "Feature", "properties": { "osm_id": "2191634579", "name": "Centre Commercial Grand Sud", "other_tags": "\"addr:city\"=>\"Le Kremlin-Bicêtre\",\"addr:housenumber\"=>\"36\",\"addr:postcode\"=>\"94270\",\"addr:street\"=>\"Avenue de Fontainebleau\",\"shop\"=>\"mall\"" }, "geometry": { "type": "Point", "coordinates": [ 2.3608051, 48.8136891 ] } },
{ "type": "Feature", "properties": { "osm_id": "2281215620", "name": "Maison Romane - Musée de Provins", "other_tags": "\"official_name\"=>\"Musée de Provins et du Provinois\",\"phone\"=>\"+33 1 64 01 40 19\",\"ref:FR:museofile\"=>\"M0383\",\"tourism\"=>\"museum\",\"website\"=>\"http://www.provins.net/index.php/decouvertes-et-visites/monuments-et-sites-a-decouvrir/le-musee-de-provins-et-du-provinois.html\",\"wikidata\"=>\"Q23600664\"" }, "geometry": { "type": "Point", "coordinates": [ 3.2907221, 48.5615816 ] } },
{ "type": "Feature", "properties": { "osm_id": "2306418341", "name": "Printemps", "other_tags": "\"brand\"=>\"Printemps\",\"brand:wikidata\"=>\"Q1535260\",\"brand:wikipedia\"=>\"fr:Printemps (grands magasins)\",\"layer\"=>\"-1\",\"level\"=>\"-2\",\"location\"=>\"underground\",\"old_name\"=>\"Virgin Megastore\",\"shop\"=>\"department_store\"" }, "geometry": { "type": "Point", "coordinates": [ 2.3339349, 48.8611384 ] } },
{ "type": "Feature", "properties": { "osm_id": "2340554084", "name": "Musée du Jouet", "other_tags": "\"addr:city\"=>\"Poissy\",\"addr:postcode\"=>\"78300\",\"fee\"=>\"yes\",\"tourism\"=>\"museum\",\"wheelchair\"=>\"yes\"" }, "geometry": { "type": "Point", "coordinates": [ 2.0380023, 48.928382 ] } },
{ "type": "Feature", "properties": { "osm_id": "2364415698", "name": "Parc aux Étoiles", "other_tags": "\"addr:housenumber\"=>\"2\",\"addr:street\"=>\"Rue de la Chapelle\",\"phone\"=>\"+33139747510\",\"tourism\"=>\"museum\",\"website\"=>\"https://parcauxetoiles.agglo2rivesdeseine.fr\"" }, "geometry": { "type": "Point", "coordinates": [ 2.0094063, 48.9986081 ] } },
{ "type": "Feature", "properties": { "osm_id": "2486352415", "name": "Art Ludique - Le Musée", "other_tags": "\"email\"=>\"info@artludique.com\",\"opening_hours\"=>\"Mo-Th 11:00-19:00; Fr 11:00-22:00; Sa,Su 10:00-20:00\",\"tourism\"=>\"museum\",\"website\"=>\"http://www.artludique.com\",\"wikidata\"=>\"Q16303874\"" }, "geometry": { "type": "Point", "coordinates": [ 2.3703276, 48.8405179 ] } },
{ "type": "Feature", "properties": { "osm_id": "2526898729", "name": "Collection des minéraux - Jussieu", "other_tags": "\"fee\"=>\"6 €\",\"opening_hours\"=>\"Mo-Sa 13:00-18:00; Tu off; May 01: off\",\"tourism\"=>\"museum\"" }, "geometry": { "type": "Point", "coordinates": [ 2.3548406, 48.8475408 ] } },
{ "type": "Feature", "properties": { "osm_id": "2546517078", "name": "Ceramic Design", "other_tags": "\"shop\"=>\"department_store\"" }, "geometry": { "type": "Point", "coordinates": [ 2.3651452, 48.7998209 ] } },
{ "type": "Feature", "properties": { "osm_id": "2584777625", "name": "Musée d'Art et d'Histoire Louis Senlecq", "other_tags": "\"museum\"=>\"history\",\"tourism\"=>\"museum\",\"website\"=>\"https://musee.ville-isle-adam.fr\",\"wikidata\"=>\"Q23639858\"" }, "geometry": { "type": "Point", "coordinates": [ 2.2159284, 49.1125448 ] } },
{ "type": "Feature", "properties": { "osm_id": "2596994348", "name": "Chez Marianne: Souvenir de Paris", "other_tags": "\"opening_hours:signed\"=>\"no\",\"shop\"=>\"department_store\",\"toilets\"=>\"no\",\"website\"=>\"http://www.disneylandparis.fr/boutiques/parc-walt-disney-studios/chez-marianne-souvenirs-de-paris/\",\"wheelchair\"=>\"yes\"" }, "geometry": { "type": "Point", "coordinates": [ 2.7768421, 48.8675295 ] } },
{ "type": "Feature", "properties": { "osm_id": "2630158532", "name": "Centre départemental d'exposition archéologique", "other_tags": "\"operator\"=>\"CG91\",\"tourism\"=>\"museum\"" }, "geometry": { "type": "Point", "coordinates": [ 2.4665016, 48.6347189 ] } },
{ "type": "Feature", "properties": { "osm_id": "2650356282", "name": "Château-Musée de Dourdan", "other_tags": "\"phone\"=>\"+33 1 64 59 66 83\",\"ref:FR:museofile\"=>\"M0404\",\"tourism\"=>\"museum\",\"website\"=>\"http://www.dourdan.fr/a-voir-a-vivre/lechateauetsonmusee/\"" }, "geometry": { "type": "Point", "coordinates": [ 2.0111955, 48.5298686 ] } },
{ "type": "Feature", "properties": { "osm_id": "2701140971", "name": "Musée Albert Kahn", "other_tags": "\"addr:housenumber\"=>\"10\",\"addr:street\"=>\"Rue du Port\",\"alt_name\"=>\"Musée départemental Albert-Kahn\",\"email:handicap\"=>\"hdellamore@cg92.fr\",\"fax\"=>\"+33146038659\",\"phone\"=>\"+33155192800\",\"phone:handicap\"=>\"01.55.19.28.00\",\"tourism\"=>\"museum\",\"website\"=>\"https://albert-kahn.hauts-de-seine.fr/\",\"wheelchair\"=>\"yes\",\"wikidata\"=>\"Q3330509\"" }, "geometry": { "type": "Point", "coordinates": [ 2.2270833, 48.8414886 ] } },
{ "type": "Feature", "properties": { "osm_id": "2703428029", "name": "Atelier Grognard", "other_tags": "\"email\"=>\"expositions.ateliergrognard@mairie-rueilmalmaison.fr\",\"opening_hours\"=>\"Mo-Su 13:30-18:00\",\"phone\"=>\"+33147141163;+33147323575\",\"tourism\"=>\"museum\",\"website\"=>\"http://www.mairie-rueilmalmaison.fr/rueil-pratique/culture-tourisme/atelier-grognard\"" }, "geometry": { "type": "Point", "coordinates": [ 2.1687097, 48.8737321 ] } },
{ "type": "Feature", "properties": { "osm_id": "2704858839", "name": "Centre Commercial de la Bièvre", "other_tags": "\"shop\"=>\"mall\"" }, "geometry": { "type": "Point", "coordinates": [ 2.2827409, 48.7412512 ] } },
{ "type": "Feature", "properties": { "osm_id": "2711097201", "other_tags": "\"shop\"=>\"department_store\"" }, "geometry": { "type": "Point", "coordinates": [ 2.1585709, 48.9028236 ] } },
{ "type": "Feature", "properties": { "osm_id": "2733994132", "name": "Darty", "other_tags": "\"shop\"=>\"department_store\",\"wheelchair\"=>\"yes\"" }, "geometry": { "type": "Point", "coordinates": [ 2.2962061, 48.8783886 ] } },
{ "type": "Feature", "properties": { "osm_id": "2751882654", "name": "Musée Fragonard", "other_tags": "\"alt_name\"=>\"Musée de l’Ecole nationale vétérinaire d’Alfort\",\"official_name\"=>\"Musée Fragonard de l’École vétérinaire de Maisons-Alfort\",\"opening_hours\"=>\"We-Su 14:00-18:00; Fr off\",\"tourism\"=>\"museum\",\"wikidata\"=>\"Q1631711\",\"wikipedia\"=>\"fr:Musée Fragonard de l'École vétérinaire de Maisons-Alfort\"" }, "geometry": { "type": "Point", "coordinates": [ 2.4233528, 48.8128139 ] } },
{ "type": "Feature", "properties": { "osm_id": "2822432102", "name": "... Le Drugstore Parisien", "other_tags": "\"brand\"=>\"Sephora\",\"brand:wikidata\"=>\"Q2408041\",\"brand:wikipedia\"=>\"en:Sephora\",\"opening_hours\"=>\"Mo-Fr 08:30-21:00; Sa 10:00-21:00; Su 12:00-21:00\",\"shop\"=>\"department_store\",\"toilets\"=>\"yes\"" }, "geometry": { "type": "Point", "coordinates": [ 2.332269, 48.87562 ] } },
{ "type": "Feature", "properties": { "osm_id": "2859074515", "name": "Musée des équipages", "other_tags": "\"tourism\"=>\"museum\"" }, "geometry": { "type": "Point", "coordinates": [ 2.7127964, 48.5675421 ] } },
{ "type": "Feature", "properties": { "osm_id": "2893591172", "name": "Maison du Pain", "other_tags": "\"contact:email\"=>\"maisondupaincommeny@gmail.com\",\"opening_hours\"=>\"\\\"Sur rendez-vous \\\"\",\"tourism\"=>\"museum\"" }, "geometry": { "type": "Point", "coordinates": [ 1.8915418, 49.1264402 ] } },
{ "type": "Feature", "properties": { "osm_id": "2912780870", "name": "Bercy Village", "other_tags": "\"addr:city\"=>\"Paris\",\"addr:country\"=>\"FR\",\"addr:postcode\"=>\"75012\",\"addr:street\"=>\"Cour Saint-Émilion\",\"opening_hours\"=>\"Mo-Su 11:00-02:00\",\"phone\"=>\"+33 8 25 16 60 75\",\"shop\"=>\"mall\",\"toilets\"=>\"yes\",\"website\"=>\"https://www.bercyvillage.com/\",\"wheelchair\"=>\"yes\",\"wikidata\"=>\"Q2896969\"" }, "geometry": { "type": "Point", "coordinates": [ 2.3863995, 48.8330311 ] } },
{ "type": "Feature", "properties": { "osm_id": "3020189523", "name": "Espace Reine de Saba", "other_tags": "\"addr:city\"=>\"Paris\",\"addr:country\"=>\"FR\",\"addr:housenumber\"=>\"30\",\"addr:postcode\"=>\"75019\",\"addr:street\"=>\"Rue Pradier\",\"tourism\"=>\"museum\",\"website\"=>\"http://www.espacereinedesaba.org/\"" }, "geometry": { "type": "Point", "coordinates": [ 2.3826909, 48.8762675 ] } },
{ "type": "Feature", "properties": { "osm_id": "3087374948", "name": "Musée du Barreau", "other_tags": "\"addr:city\"=>\"Paris\",\"addr:housenumber\"=>\"25\",\"addr:postcode\"=>\"75001\",\"addr:street\"=>\"Rue du Jour\",\"opening_hours\"=>\"Sa-Su 10:00-17:00\",\"phone\"=>\"+33 1 44 32 47 48\",\"tourism\"=>\"museum\",\"website\"=>\"https://www.museedubarreaudeparis.com/\",\"wikidata\"=>\"Q6402206\"" }, "geometry": { "type": "Point", "coordinates": [ 2.3450171, 48.8640279 ] } },
{ "type": "Feature", "properties": { "osm_id": "3087382803", "name": "Maison de la RATP", "other_tags": "\"contact:city\"=>\"Paris\",\"contact:housenumber\"=>\"189\",\"contact:postcode\"=>\"75012\",\"contact:street\"=>\"Rue de Bercy\",\"tourism\"=>\"museum\"" }, "geometry": { "type": "Point", "coordinates": [ 2.3731854, 48.8435231 ] } },
{ "type": "Feature", "properties": { "osm_id": "3137401153", "name": "Centre Commercial des Gâtines", "other_tags": "\"shop\"=>\"mall\"" }, "geometry": { "type": "Point", "coordinates": [ 1.9640588, 48.8041225 ] } },
{ "type": "Feature", "properties": { "osm_id": "3194103343", "name": "Musée Municipal Josèphe Jacquiot", "other_tags": "\"operator\"=>\"Montgeron\",\"tourism\"=>\"museum\"" }, "geometry": { "type": "Point", "coordinates": [ 2.4563835, 48.7062114 ] } },
{ "type": "Feature", "properties": { "osm_id": "3223710967", "name": "Institut des Lettres et Manuscrits", "other_tags": "\"tourism\"=>\"museum\",\"wikidata\"=>\"Q2407603\",\"wikipedia\"=>\"fr:Musée des lettres et manuscrits\"" }, "geometry": { "type": "Point", "coordinates": [ 2.3286291, 48.8573239 ] } },
{ "type": "Feature", "properties": { "osm_id": "3245223370", "name": "Centre Commercial des Petits Prés", "other_tags": "\"shop\"=>\"mall\"" }, "geometry": { "type": "Point", "coordinates": [ 1.9530329, 48.7676044 ] } },
{ "type": "Feature", "properties": { "osm_id": "3254769225", "name": "Le Musée Vivant du Chemin de Fer", "other_tags": "\"email\"=>\"musee@ajecta.org\",\"fee\"=>\"full:4; discount:2\",\"opening_hours\"=>\"Oct-May: Su 13:00-17:00, PH 13:00-17:00; Jun-Sep: Sa-Su 10:00-18:00, PH 10:00-18:00\",\"operator\"=>\"AJECTA\",\"phone\"=>\"+33164086062\",\"tourism\"=>\"museum\",\"website\"=>\"http://www.ajecta.org/Page_cadr_dep.htm\",\"wikidata\"=>\"Q3330821\",\"wikipedia\"=>\"fr:Musée vivant du chemin de fer (Longueville)\"" }, "geometry": { "type": "Point", "coordinates": [ 3.2535192, 48.5124299 ] } },
{ "type": "Feature", "properties": { "osm_id": "3257435402", "other_tags": "\"shop\"=>\"mall\"" }, "geometry": { "type": "Point", "coordinates": [ 1.9723585, 48.821803 ] } },
{ "type": "Feature", "properties": { "osm_id": "3264156913", "name": "Centre Commercial Les Saules", "other_tags": "\"shop\"=>\"mall\"" }, "geometry": { "type": "Point", "coordinates": [ 2.0525862, 48.7832449 ] } },
{ "type": "Feature", "properties": { "osm_id": "3264156914", "name": "Centre Commercial des Prés", "other_tags": "\"shop\"=>\"mall\"" }, "geometry": { "type": "Point", "coordinates": [ 2.0359295, 48.7795455 ] } },
{ "type": "Feature", "properties": { "osm_id": "3274320975", "name": "Musée de la Photo", "other_tags": "\"addr:city\"=>\"Bièvres\",\"addr:housenumber\"=>\"78\",\"addr:postcode\"=>\"91570\",\"addr:street\"=>\"Rue de Paris\",\"tourism\"=>\"museum\"" }, "geometry": { "type": "Point", "coordinates": [ 2.2255569, 48.7630427 ] } },
{ "type": "Feature", "properties": { "osm_id": "3283625396", "name": "Musée de la Photo Réserves de Massy", "other_tags": "\"addr:city\"=>\"Massy\",\"addr:housenumber\"=>\"3-5\",\"addr:postcode\"=>\"91300\",\"addr:street\"=>\"Rue du Théâtre\",\"tourism\"=>\"museum\"" }, "geometry": { "type": "Point", "coordinates": [ 2.2890337, 48.7316017 ] } },
{ "type": "Feature", "properties": { "osm_id": "3294543361", "name": "Anciens Elèves (Musée)", "other_tags": "\"tourism\"=>\"museum\"" }, "geometry": { "type": "Point", "coordinates": [ 2.3277854, 48.8454353 ] } },
{ "type": "Feature", "properties": { "osm_id": "3303412972", "name": "Musée d'Histoire contemporaine", "other_tags": "\"email\"=>\"renseignements@bdic.fr\",\"level\"=>\"3\",\"note:fr\"=>\"Musée devant être relocalisé sur Nanterre dans ses propre locaux après 2017\",\"opening_hours\"=>\"\\\"Sur RDV\\\"\",\"phone\"=>\"+33144425491\",\"tourism\"=>\"museum\",\"website\"=>\"http://www.bdic.fr/\",\"wheelchair\"=>\"yes\",\"wikidata\"=>\"Q2023744\"" }, "geometry": { "type": "Point", "coordinates": [ 2.3132514, 48.8566677 ] } },
{ "type": "Feature", "properties": { "osm_id": "3303412973", "name": "Musée de l'Ordre de la Libération", "other_tags": "\"fee\"=>\"full:12;discount:10;free: under 26, handicap, press, unemployment\",\"name:en\"=>\"Museum of the Order of the Liberation\",\"name:ru\"=>\"Музей Ордена Освобождение\",\"opening_hours\"=>\"Apr 01-Oct 31: Mo-Su 10:00-18:00; Nov 01,Mar 31: Mo-Su 10:00-17:00\",\"tourism\"=>\"museum\",\"website\"=>\"https://www.ordredelaliberation.fr/fr_doc/musee.html\",\"wheelchair\"=>\"yes\",\"wikidata\"=>\"Q2920606\",\"wikipedia\"=>\"fr:Musée de l'Ordre de la Libération\"" }, "geometry": { "type": "Point", "coordinates": [ 2.311332, 48.8556933 ] } },
{ "type": "Feature", "properties": { "osm_id": "3303412974", "name": "Musée des Plans-Reliefs", "other_tags": "\"fee\"=>\"full:9.5; discount:7.5\",\"level\"=>\"4\",\"name:ru\"=>\"Музей планов и рельефов\",\"opening_hours\"=>\"Oct-Mar: Mo-Su 10:00-17:00; Apr-Sep: Mo-Su 10:00-18:00; Mo[1] off; Jan 1 off; May 1 off; Nov 1 off; Dec 25 off\",\"phone\"=>\"+33 1 45 51 95 05\",\"ref:FR:museofile\"=>\"M5071\",\"tourism\"=>\"museum\",\"website\"=>\"http://www.museedesplansreliefs.culture.fr/\",\"wheelchair\"=>\"yes\",\"wikidata\"=>\"Q2915606\",\"wikipedia\"=>\"fr:Musée des Plans-reliefs\"" }, "geometry": { "type": "Point", "coordinates": [ 2.3132374, 48.8564589 ] } },
{ "type": "Feature", "properties": { "osm_id": "3330751338", "name": "Centre Commercial des Mourinoux", "other_tags": "\"shop\"=>\"mall\"" }, "geometry": { "type": "Point", "coordinates": [ 2.2753809, 48.931741 ] } },
{ "type": "Feature", "properties": { "osm_id": "3330751339", "name": "Centre Commercial des Quatre Routes", "other_tags": "\"check_date:opening_hours\"=>\"2020-11-14\",\"opening_hours\"=>\"Mo-Sa 08:30-20:30, Su 09:00-13:00\",\"shop\"=>\"mall\",\"toilets\"=>\"yes\"" }, "geometry": { "type": "Point", "coordinates": [ 2.2742489, 48.9275675 ] } },
{ "type": "Feature", "properties": { "osm_id": "3338010066", "name": "Centre Commercial Les Hauts de Lagny", "other_tags": "\"shop\"=>\"mall\"" }, "geometry": { "type": "Point", "coordinates": [ 2.7074696, 48.8667508 ] } },
{ "type": "Feature", "properties": { "osm_id": "3338010067", "name": "Centre Commercial du Parc de la Noue", "other_tags": "\"shop\"=>\"mall\"" }, "geometry": { "type": "Point", "coordinates": [ 2.5425238, 48.9587907 ] } },
{ "type": "Feature", "properties": { "osm_id": "3406106057", "name": "Edentara - Ferme Pédagogique Exotique", "other_tags": "\"addr:city\"=>\"Isles-les-Meldeuses\",\"addr:housenumber\"=>\"12\",\"addr:postcode\"=>\"77440\",\"addr:street\"=>\"Route de Trilport\",\"tourism\"=>\"zoo\",\"website\"=>\"http://edentara.free.fr/\"" }, "geometry": { "type": "Point", "coordinates": [ 3.0030549, 48.9979746 ] } },
{ "type": "Feature", "properties": { "osm_id": "3407370497", "name": "Musée Volant Salis", "other_tags": "\"addr:city\"=>\"Cerny\",\"addr:postcode\"=>\"91590\",\"addr:street\"=>\"Chemin du Fourneou\",\"opening_hours\"=>\"Mo-Fr 09:30-12:00,14:00-17:30; Sa-Su 09:30-12:00,14:00-18:00; Aug: Mo off; Tu-Fr 14:00-18:00; Sa-Su 09:30-12:00,14:00-18:00\",\"tourism\"=>\"museum\",\"website\"=>\"http://www.musee-volant-salis.fr/\"" }, "geometry": { "type": "Point", "coordinates": [ 2.343302, 48.4959939 ] } },
{ "type": "Feature", "properties": { "osm_id": "3415691369", "name": "Musée Louis Braille", "other_tags": "\"tourism\"=>\"museum\"" }, "geometry": { "type": "Point", "coordinates": [ 2.7920016, 48.8945157 ] } },
{ "type": "Feature", "properties": { "osm_id": "3471483565", "name": "Le Musée du Montois", "other_tags": "\"addr:city\"=>\"Luisetaines\",\"addr:housenumber\"=>\"26\",\"addr:postcode\"=>\"77520\",\"addr:street\"=>\"Grande Rue\",\"contact:email\"=>\"g.delaveau@free.fr\",\"contact:phone\"=>\"+33 1 60 67 49 27\",\"contact:website\"=>\"https://www.musee-montois.fr\",\"phone\"=>\"+33 6 32 15 34 60\",\"tourism\"=>\"museum\"" }, "geometry": { "type": "Point", "coordinates": [ 3.1805007, 48.4683504 ] } },
{ "type": "Feature", "properties": { "osm_id": "3500986215", "name": "Musée de la Maison de Jean Cocteau", "other_tags": "\"addr:city\"=>\"Milly-la-Forêt\",\"fee\"=>\"yes\",\"tourism\"=>\"museum\",\"website\"=>\"http://maisoncocteau.net/informations-pratiques\"" }, "geometry": { "type": "Point", "coordinates": [ 2.4648343, 48.402317 ] } },
{ "type": "Feature", "properties": { "osm_id": "3523197030", "name": "Centre Commercial Marcel Rivière", "other_tags": "\"shop\"=>\"mall\"" }, "geometry": { "type": "Point", "coordinates": [ 1.9447107, 48.7546435 ] } },
{ "type": "Feature", "properties": { "osm_id": "3523480996", "name": "Centre commercial de Satory", "other_tags": "\"shop\"=>\"mall\"" }, "geometry": { "type": "Point", "coordinates": [ 2.1181124, 48.7843132 ] } },
{ "type": "Feature", "properties": { "osm_id": "3526658535", "name": "Centre Commercial Le Cèdre", "other_tags": "\"shop\"=>\"mall\"" }, "geometry": { "type": "Point", "coordinates": [ 2.0674433, 48.8427272 ] } },
{ "type": "Feature", "properties": { "osm_id": "3526658536", "name": "Centre Commercial Les Garennes", "other_tags": "\"shop\"=>\"mall\"" }, "geometry": { "type": "Point", "coordinates": [ 2.05071, 48.775015 ] } },
{ "type": "Feature", "properties": { "osm_id": "3536308798", "name": "Centre Commercial Richard Mique", "other_tags": "\"shop\"=>\"mall\"" }, "geometry": { "type": "Point", "coordinates": [ 2.1434816, 48.8121611 ] } },
{ "type": "Feature", "properties": { "osm_id": "3556912109", "name": "Centre Commercial Bel Est", "other_tags": "\"internet_access\"=>\"wlan\",\"internet_access:fee\"=>\"no\",\"opening_hours\"=>\"Mo-Fr 08:30-21:30; Sa 08:00-21:30; Su 08:30-12:30\",\"shop\"=>\"mall\",\"website\"=>\"https://www.belest.fr/\"" }, "geometry": { "type": "Point", "coordinates": [ 2.4164955, 48.8655092 ] } },
{ "type": "Feature", "properties": { "osm_id": "3557035029", "other_tags": "\"shop\"=>\"mall\"" }, "geometry": { "type": "Point", "coordinates": [ 2.4448016, 48.7916524 ] } },
{ "type": "Feature", "properties": { "osm_id": "3558132694", "name": "Centre Commercial Échat", "other_tags": "\"shop\"=>\"mall\"" }, "geometry": { "type": "Point", "coordinates": [ 2.4486593, 48.7966574 ] } },
{ "type": "Feature", "properties": { "osm_id": "3558311560", "name": "Centre Commercial du Bois des Roches", "other_tags": "\"shop\"=>\"mall\"" }, "geometry": { "type": "Point", "coordinates": [ 2.3194361, 48.6365787 ] } },
{ "type": "Feature", "properties": { "osm_id": "3601140070", "name": "Centre Commercail Les Meillottes", "other_tags": "\"shop\"=>\"mall\"" }, "geometry": { "type": "Point", "coordinates": [ 2.4581193, 48.6510255 ] } },
{ "type": "Feature", "properties": { "osm_id": "3670638287", "name": "Centre Commercial de la Croix du Sud", "other_tags": "\"shop\"=>\"mall\"" }, "geometry": { "type": "Point", "coordinates": [ 2.3403815, 48.7703894 ] } },
{ "type": "Feature", "properties": { "osm_id": "3693631134", "name": "Printemps", "other_tags": "\"brand\"=>\"Printemps\",\"brand:wikidata\"=>\"Q1535260\",\"brand:wikipedia\"=>\"fr:Printemps (grands magasins)\",\"level\"=>\"0; 1\",\"opening_hours\"=>\"Mo-We,Fr,Sa 10:00-20:00, Th 10:00-21:00\",\"operator\"=>\"Printemps\",\"shop\"=>\"department_store\"" }, "geometry": { "type": "Point", "coordinates": [ 2.3554276, 48.8295774 ] } },
{ "type": "Feature", "properties": { "osm_id": "3714149400", "name": "Galerie Vivienne", "other_tags": "\"addr:city\"=>\"Paris\",\"addr:postcode\"=>\"75002\",\"addr:street\"=>\"Galerie Vivienne\",\"name:ja\"=>\"ギャラリーヴィヴィエンヌ\",\"opening_hours\"=>\"Mo-Sa 08:30-20:30\",\"shop\"=>\"mall\"" }, "geometry": { "type": "Point", "coordinates": [ 2.3398337, 48.8668126 ] } },
{ "type": "Feature", "properties": { "osm_id": "3714160888", "name": "Passage Jouffroy", "other_tags": "\"addr:city\"=>\"Paris\",\"addr:postcode\"=>\"75009\",\"addr:street\"=>\"Passage Jouffroy\",\"shop\"=>\"mall\",\"wikidata\"=>\"Q2055773\"" }, "geometry": { "type": "Point", "coordinates": [ 2.3422538, 48.8725858 ] } },
{ "type": "Feature", "properties": { "osm_id": "3714169387", "name": "Passage Verdeau", "other_tags": "\"addr:city\"=>\"Paris\",\"addr:housenumber\"=>\"6\",\"addr:postcode\"=>\"75003\",\"addr:street\"=>\"Rue de la Grange Batelière\",\"shop\"=>\"mall\"" }, "geometry": { "type": "Point", "coordinates": [ 2.3422679, 48.8731203 ] } },
{ "type": "Feature", "properties": { "osm_id": "3714181592", "name": "Galerie Véro-Dodat", "other_tags": "\"addr:city\"=>\"Paris\",\"addr:housenumber\"=>\"19\",\"addr:postcode\"=>\"75001\",\"addr:street\"=>\"Rue Jean-Jacques Rousseau\",\"shop\"=>\"mall\",\"toilets\"=>\"no\"" }, "geometry": { "type": "Point", "coordinates": [ 2.3402026, 48.8628331 ] } },
{ "type": "Feature", "properties": { "osm_id": "3752720447", "name": "Sciences ACO", "other_tags": "\"tourism\"=>\"museum\",\"website\"=>\"http://sciencesaco.fr/\"" }, "geometry": { "type": "Point", "coordinates": [ 2.1721717, 48.6991073 ] } },
{ "type": "Feature", "properties": { "osm_id": "3759491975", "name": "HEMA", "other_tags": "\"addr:city\"=>\"Paris\",\"addr:housenumber\"=>\"118\",\"addr:postcode\"=>\"75001\",\"addr:street\"=>\"Rue Rambuteau\",\"brand\"=>\"HEMA\",\"brand:website\"=>\"https://www.hema.fr/\",\"brand:wikidata\"=>\"Q903805\",\"brand:wikipedia\"=>\"en:HEMA (store)\",\"opening_hours\"=>\"Mo-Sa 08:30-20:30; Su 09:00-20:00\",\"shop\"=>\"department_store\",\"wheelchair\"=>\"yes\"" }, "geometry": { "type": "Point", "coordinates": [ 2.347606, 48.8626448 ] } },
{ "type": "Feature", "properties": { "osm_id": "3767095668", "name": "Centre Commercial Pablo Picasso", "other_tags": "\"shop\"=>\"mall\"" }, "geometry": { "type": "Point", "coordinates": [ 2.56454, 48.6595617 ] } },
{ "type": "Feature", "properties": { "osm_id": "3767095669", "name": "Centre Commerrcial du Bois l'Évêque", "other_tags": "\"shop\"=>\"mall\"" }, "geometry": { "type": "Point", "coordinates": [ 2.5758183, 48.6600982 ] } },
{ "type": "Feature", "properties": { "osm_id": "3767104301", "name": "Centre Commercial Jardins Concy", "other_tags": "\"shop\"=>\"mall\"" }, "geometry": { "type": "Point", "coordinates": [ 2.4890576, 48.7128561 ] } },
{ "type": "Feature", "properties": { "osm_id": "3787532339", "name": "Musée de l'Homme", "other_tags": "\"addr:city\"=>\"Paris\",\"addr:housenumber\"=>\"17\",\"addr:postcode\"=>\"75116\",\"addr:street\"=>\"Place du Trocadéro et du 11 Novembre 1918\",\"email\"=>\"contact.mdh@mnhn.fr\",\"name:en\"=>\"Museum of Mankind\",\"name:es\"=>\"Museo del Hombre\",\"name:it\"=>\"Museo dell'Uomo\",\"opening_hours\"=>\"We-Mo,PH 10:00-18:00\",\"phone\"=>\"+33144057272\",\"tourism\"=>\"museum\",\"website\"=>\"http://www.museedelhomme.fr/\",\"wheelchair\"=>\"yes\",\"wikidata\"=>\"Q670268\",\"wikipedia\"=>\"fr:Musée de l'Homme\"" }, "geometry": { "type": "Point", "coordinates": [ 2.2873776, 48.8622099 ] } },
{ "type": "Feature", "properties": { "osm_id": "3790325096", "name": "Salle d'Exposition Musée", "other_tags": "\"tourism\"=>\"museum\"" }, "geometry": { "type": "Point", "coordinates": [ 2.3022442, 48.7754189 ] } },
{ "type": "Feature", "properties": { "osm_id": "3812297801", "name": "Musée du Vexin français", "other_tags": "\"description\"=>\"Accueil vélo\",\"internet_access\"=>\"wlan\",\"opening_hours\"=>\"Tu-Fr 09:00-13:30,14:00-18:00; Sa 14:00-18:00; Su 08:00-15:00; Sa 10:00-19:00\",\"tourism\"=>\"museum\",\"website\"=>\"http://ecomusees-vexin-francais.fr/vexin.html\",\"wheelchair\"=>\"yes\",\"wikidata\"=>\"Q3330397\",\"wikipedia\"=>\"fr:Musée du Vexin français\"" }, "geometry": { "type": "Point", "coordinates": [ 1.8959758, 49.086592 ] } },
{ "type": "Feature", "properties": { "osm_id": "3831836304", "name": "Cuisines", "other_tags": "\"name:en\"=>\"Kitchens\",\"opening_hours:covid19\"=>\"open\",\"tourism\"=>\"museum\"" }, "geometry": { "type": "Point", "coordinates": [ 2.109106, 48.814992 ] } },
{ "type": "Feature", "properties": { "osm_id": "3841720296", "name": "Centre Commercial La Jalaise", "other_tags": "\"shop\"=>\"mall\"" }, "geometry": { "type": "Point", "coordinates": [ 2.6747644, 49.0734125 ] } },
{ "type": "Feature", "properties": { "osm_id": "3841764156", "name": "Centre Commercial des Sources", "other_tags": "\"shop\"=>\"mall\"" }, "geometry": { "type": "Point", "coordinates": [ 2.7888471, 49.0755651 ] } },
{ "type": "Feature", "properties": { "osm_id": "3843014644", "other_tags": "\"shop\"=>\"mall\"" }, "geometry": { "type": "Point", "coordinates": [ 2.9049906, 48.9500915 ] } },
{ "type": "Feature", "properties": { "osm_id": "3882655722", "name": "Cité des Enfants (2-7 ans)", "other_tags": "\"fee\"=>\"yes\",\"level\"=>\"0\",\"tourism\"=>\"museum\",\"website\"=>\"http://www.cite-sciences.fr/fr/au-programme/expos-permanentes/la-cite-des-enfants/lexposition-2-7-ans/\"" }, "geometry": { "type": "Point", "coordinates": [ 2.3880996, 48.8961521 ] } },
{ "type": "Feature", "properties": { "osm_id": "3895531957", "other_tags": "\"shop\"=>\"mall\"" }, "geometry": { "type": "Point", "coordinates": [ 2.5012132, 49.0570402 ] } },
{ "type": "Feature", "properties": { "osm_id": "3980224339", "name": "Benlux", "other_tags": "\"shop\"=>\"department_store\",\"wheelchair\"=>\"yes\"" }, "geometry": { "type": "Point", "coordinates": [ 2.3350602, 48.862915 ] } },
{ "type": "Feature", "properties": { "osm_id": "3980577966", "name": "Galerie Royale", "other_tags": "\"addr:city\"=>\"Paris\",\"addr:housenumber\"=>\"9\",\"addr:postcode\"=>\"75008\",\"addr:street\"=>\"Rue Royale\",\"fee\"=>\"no\",\"tourism\"=>\"museum\"" }, "geometry": { "type": "Point", "coordinates": [ 2.3225218, 48.8677577 ] } },
{ "type": "Feature", "properties": { "osm_id": "3980660124", "name": "Village Royal", "other_tags": "\"addr:city\"=>\"Paris\",\"addr:housenumber\"=>\"25\",\"addr:postcode\"=>\"75008\",\"addr:street\"=>\"Rue Royale\",\"shop\"=>\"mall\"" }, "geometry": { "type": "Point", "coordinates": [ 2.323397, 48.8690446 ] } },
{ "type": "Feature", "properties": { "osm_id": "4247776290", "name": "Musée de l'Histoire Vivante", "other_tags": "\"addr:city\"=>\"Montreuil sous Bois\",\"addr:housenumber\"=>\"31\",\"addr:postcode\"=>\"93100\",\"addr:street\"=>\"Boulevard Théophile Sueur\",\"opening_hours\"=>\"We-Fr 14:00-17:00; Sa-Su 14:00-17:30; Aug closed\",\"phone\"=>\"+33 1 48 70 61 62\",\"ref:FR:museofile\"=>\"M0420\",\"tourism\"=>\"museum\",\"website\"=>\"http://www.museehistoirevivante.com\",\"wikidata\"=>\"Q3329788\"" }, "geometry": { "type": "Point", "coordinates": [ 2.4718198, 48.8660128 ] } },
{ "type": "Feature", "properties": { "osm_id": "4249899936", "name": "Musée en Herbe", "other_tags": "\"addr:city\"=>\"Paris\",\"addr:housenumber\"=>\"23\",\"addr:postcode\"=>\"75001\",\"addr:street\"=>\"Rue de l'Arbre Sec\",\"fee\"=>\"yes\",\"opening_hours\"=>\"Mo-We 10:00-19:00; Th 10:00-21:00; Fr-Su 10:00-19:00\",\"toilets:wheelchair\"=>\"yes\",\"tourism\"=>\"museum\",\"website\"=>\"http://www.musee-en-herbe.com/\",\"wheelchair\"=>\"yes\"" }, "geometry": { "type": "Point", "coordinates": [ 2.3421021, 48.8601457 ] } },
{ "type": "Feature", "properties": { "osm_id": "4265122872", "name": "Château de Versailles", "other_tags": "\"fee\"=>\"yes\",\"name:cs\"=>\"Versailles\",\"name:de\"=>\"Schloss Versailles\",\"name:en\"=>\"Palace of Versailles\",\"name:fr\"=>\"Château de Versailles\",\"name:hr\"=>\"Palača Versaj\",\"name:ko\"=>\"베르샤유 궁전\",\"name:pt\"=>\"Palácio de Versalhes\",\"name:ru\"=>\"Версальский дворец\",\"name:zh\"=>\"凡爾賽宮\",\"opening_hours\"=>\"Tu-Su 09:00-17:30\",\"toilets:wheelchair\"=>\"yes\",\"tourism\"=>\"museum\",\"wheelchair\"=>\"limited\"" }, "geometry": { "type": "Point", "coordinates": [ 2.120417, 48.8047835 ] } },
{ "type": "Feature", "properties": { "osm_id": "4318447645", "name": "Boucherie", "other_tags": "\"shop\"=>\"mall\"" }, "geometry": { "type": "Point", "coordinates": [ 2.6842384, 48.5113936 ] } },
{ "type": "Feature", "properties": { "osm_id": "4459265327", "name": "Musée Jean-Jacques Rousseau", "other_tags": "\"description\"=>\"Maison de Jean-Jacques Rousseau et Maison des Commères\",\"heritage\"=>\"2\",\"heritage:operator\"=>\"mhs\",\"mhs:inscription_date\"=>\"1984-12-21\",\"ref:mhs\"=>\"PA00080131\",\"source:heritage\"=>\"data.gouv.fr, Ministère de la Culture - 2016\",\"tourism\"=>\"museum\",\"website\"=>\"http://museejjrousseau.montmorency.fr/fr\",\"wikidata\"=>\"Q22985993\",\"wikipedia\"=>\"fr:Musée Jean-Jacques-Rousseau\"" }, "geometry": { "type": "Point", "coordinates": [ 2.3215161, 48.9869805 ] } },
{ "type": "Feature", "properties": { "osm_id": "4504746129", "name": "Centre Commercail Le Forum", "other_tags": "\"shop\"=>\"mall\"" }, "geometry": { "type": "Point", "coordinates": [ 2.285156, 48.9681296 ] } },
{ "type": "Feature", "properties": { "osm_id": "4512162051", "name": "Fondation Dosne-Thiers", "other_tags": "\"tourism\"=>\"museum\",\"wikidata\"=>\"Q3075435\"" }, "geometry": { "type": "Point", "coordinates": [ 2.3379614, 48.8785498 ] } },
{ "type": "Feature", "properties": { "osm_id": "4536678242", "name": "Théâtre-musée des Capucines", "other_tags": "\"opening_hours\"=>\"Mo-Sa 09:00-18:00\",\"tourism\"=>\"museum\",\"wikidata\"=>\"Q3527406\"" }, "geometry": { "type": "Point", "coordinates": [ 2.3291888, 48.8698912 ] } },
{ "type": "Feature", "properties": { "osm_id": "4539907091", "name": "In Situ | Fabienne Leclerc", "other_tags": "\"addr:housenumber\"=>\"14\",\"addr:postcode\"=>\"75018\",\"addr:street\"=>\"Boulevard de la Chapelle\",\"email\"=>\"galerie@insituparis.fr\",\"phone\"=>\"+33153790612\",\"tourism\"=>\"museum\",\"website\"=>\"http://www.insituparis.fr\"" }, "geometry": { "type": "Point", "coordinates": [ 2.3637061, 48.884627 ] } },
{ "type": "Feature", "properties": { "osm_id": "4542685707", "name": "Archéa", "other_tags": "\"addr:city\"=>\"Louvres\",\"addr:housenumber\"=>\"56\",\"addr:postcode\"=>\"95380\",\"addr:street\"=>\"Rue de Paris\",\"phone\"=>\"+33 1 34 09 01 02\",\"tourism\"=>\"museum\",\"website\"=>\"http://archea.roissypaysdefrance.fr\",\"wheelchair\"=>\"yes\",\"wikidata\"=>\"Q2860590\",\"wikipedia\"=>\"fr:Archéa\"" }, "geometry": { "type": "Point", "coordinates": [ 2.5072634, 49.041052 ] } },
{ "type": "Feature", "properties": { "osm_id": "4568613603", "name": "Rexel", "other_tags": "\"name:fr\"=>\"Rexel\",\"shop\"=>\"department_store\"" }, "geometry": { "type": "Point", "coordinates": [ 2.4744933, 48.8801452 ] } },
{ "type": "Feature", "properties": { "osm_id": "4568638497", "name": "Zodio", "other_tags": "\"name:fr\"=>\"Zodio\",\"shop\"=>\"department_store\"" }, "geometry": { "type": "Point", "coordinates": [ 2.4722096, 48.8812391 ] } },
{ "type": "Feature", "properties": { "osm_id": "4568639196", "name": "Kiloutou", "other_tags": "\"name:fr\"=>\"Kiloutou\",\"shop\"=>\"department_store\"" }, "geometry": { "type": "Point", "coordinates": [ 2.4749164, 48.8797708 ] } },
{ "type": "Feature", "properties": { "osm_id": "4568655796", "name": "L'Œil du Jour", "other_tags": "\"name:fr\"=>\"L'Oeil du Jour\",\"shop\"=>\"department_store\"" }, "geometry": { "type": "Point", "coordinates": [ 2.4715485, 48.8816747 ] } },
{ "type": "Feature", "properties": { "osm_id": "4580960201", "name": "Musée du Parfum Fragonard", "other_tags": "\"phone\"=>\"+33140061009\",\"tourism\"=>\"museum\",\"website\"=>\"https://fragonard.com\",\"wikidata\"=>\"Q4820646\"" }, "geometry": { "type": "Point", "coordinates": [ 2.3292337, 48.8718005 ] } },
{ "type": "Feature", "properties": { "osm_id": "4590498342", "name": "Moulin Neuf", "other_tags": "\"operator\"=>\"Musée des Arts et Traditions populaires\",\"tourism\"=>\"museum\",\"website\"=>\"http://sthistoriquestarnoultyvelines.e-monsite.com/pages/societe-historique/musee-municipal-au-moulin-neuf.html\"" }, "geometry": { "type": "Point", "coordinates": [ 1.957323, 48.574298 ] } },
{ "type": "Feature", "properties": { "osm_id": "4596328553", "name": "Metro Chilly", "other_tags": "\"addr:street\"=>\"Rue du Chemin Blanc\",\"opening_hours\"=>\"Mo-Fr 05:00-22:00\",\"shop\"=>\"department_store\"" }, "geometry": { "type": "Point", "coordinates": [ 2.2946744, 48.7053606 ] } },
{ "type": "Feature", "properties": { "osm_id": "4596328554", "name": "Metro Mortagne", "other_tags": "\"addr:street\"=>\"Rue du Chemin Blanc\",\"name:fr\"=>\"Metro Mortagne\",\"opening_hours\"=>\"Mo-Fr 05:00-22:00\",\"shop\"=>\"department_store\"" }, "geometry": { "type": "Point", "coordinates": [ 2.2949859, 48.7064396 ] } },
{ "type": "Feature", "properties": { "osm_id": "4664509356", "name": "Musée des Archives Nationales", "other_tags": "\"opening_hours\"=>\"Mo,We-Fr 10:00-17:30, Sa,Su 14:00-17:30\",\"tourism\"=>\"museum\",\"wikidata\"=>\"Q3330111\"" }, "geometry": { "type": "Point", "coordinates": [ 2.3596128, 48.8598523 ] } },
{ "type": "Feature", "properties": { "osm_id": "4679772363", "name": "Musée Boleslas Biegas", "other_tags": "\"addr:street\"=>\"Rue d'Arcole\",\"phone\"=>\"+33 1 43 54 35 61\",\"tourism\"=>\"museum\",\"website\"=>\"http://www.bibliotheque-polonaise-paris-shlp.fr\",\"wikidata\"=>\"Q2383302\"" }, "geometry": { "type": "Point", "coordinates": [ 2.35562, 48.8513131 ] } },
{ "type": "Feature", "properties": { "osm_id": "4679984491", "name": "Tang", "other_tags": "\"name:fr\"=>\"Chang\",\"shop\"=>\"department_store\"" }, "geometry": { "type": "Point", "coordinates": [ 2.3575063, 48.8301375 ] } },
{ "type": "Feature", "properties": { "osm_id": "4682446142", "name": "Saint-Honore Market", "other_tags": "\"shop\"=>\"department_store\"" }, "geometry": { "type": "Point", "coordinates": [ 2.3223649, 48.8688632 ] } },
{ "type": "Feature", "properties": { "osm_id": "4745608521", "name": "Fondation Custodia", "other_tags": "\"name:fr\"=>\"Fondation Custodia\",\"tourism\"=>\"museum\",\"wikidata\"=>\"Q3075420\"" }, "geometry": { "type": "Point", "coordinates": [ 2.3198335, 48.8613515 ] } },
{ "type": "Feature", "properties": { "osm_id": "4805558117", "name": "Musée Daubigny", "other_tags": "\"tourism\"=>\"museum\"" }, "geometry": { "type": "Point", "coordinates": [ 2.171417, 49.0713308 ] } },
{ "type": "Feature", "properties": { "osm_id": "4816418121", "name": "Sortie des Catacombes", "other_tags": "\"addr:housenumber\"=>\"21 bis\",\"addr:postcode\"=>\"75014\",\"addr:street\"=>\"Avenue René Coty\",\"fee\"=>\"no\",\"name:en\"=>\"Catacombs exit\",\"name:fr\"=>\"Sortie des Catacombes\",\"tourism\"=>\"museum\"" }, "geometry": { "type": "Point", "coordinates": [ 2.3345327, 48.8295257 ] } },
{ "type": "Feature", "properties": { "osm_id": "4828705432", "name": "Boutique du Musée de la Poste", "other_tags": "\"alt_name\"=>\"L'Adresse Musée de la Poste\",\"contact:phone\"=>\"+33 1 53 719849\",\"contact:website\"=>\"https://museedelaposte.fr\",\"description\"=>\"travaux 2017 boutique 21 avenue du Maine\",\"opening_hours\"=>\"Mo-Fr 10:00-18:00\",\"tourism\"=>\"museum\",\"website\"=>\"http://www.ladressemuseedelaposte.fr\",\"wheelchair\"=>\"yes\",\"wikidata\"=>\"Q2445818\",\"wikipedia\"=>\"fr:L'Adresse Musée de La Poste\"" }, "geometry": { "type": "Point", "coordinates": [ 2.320792, 48.8434128 ] } },
{ "type": "Feature", "properties": { "osm_id": "4908064821", "name": "French Touche", "other_tags": "\"addr:housenumber\"=>\"90\",\"addr:postcode\"=>\"75017\",\"addr:street\"=>\"Rue Legendre\",\"opening_hours\"=>\"Tu-Sa 11:00-20:00\",\"shop\"=>\"department_store\",\"survey:date\"=>\"2017-08-30\",\"toilets\"=>\"no\"" }, "geometry": { "type": "Point", "coordinates": [ 2.3195621, 48.8871592 ] } },
{ "type": "Feature", "properties": { "osm_id": "4908819676", "name": "Musée National de l'Histoire de l'Immigration", "other_tags": "\"addr:housenumber\"=>\"293\",\"addr:postcode\"=>\"75012\",\"addr:street\"=>\"Avenue Daumesnil\",\"contact:facebook\"=>\"MNHIParis\",\"contact:twitter\"=>\"MNHIParis\",\"opening_hours\"=>\"Tu-Fr 10:00-17:30; Sa-Su 10:00-19:00\",\"phone\"=>\"+33 1 53 59 58 60\",\"tourism\"=>\"museum\",\"website\"=>\"http://www.histoire-immigration.fr/\",\"wikidata\"=>\"Q1094332\",\"wikipedia\"=>\"fr:Musée de l’histoire de l’immigration\"" }, "geometry": { "type": "Point", "coordinates": [ 2.4093613, 48.8351424 ] } },
{ "type": "Feature", "properties": { "osm_id": "5010996908", "name": "MTO Shahmaghsoudi Glibal", "other_tags": "\"description\"=>\"Musée du soufisme, un courant spirituel de l'Islam.\",\"fee\"=>\"yes\",\"tourism\"=>\"museum\"" }, "geometry": { "type": "Point", "coordinates": [ 2.1570208, 48.8844725 ] } },
{ "type": "Feature", "properties": { "osm_id": "5066109921", "name": "Atelier Gabrielle", "other_tags": "\"name:fr\"=>\"Atelier Gabrielle\",\"tourism\"=>\"museum\"" }, "geometry": { "type": "Point", "coordinates": [ 2.340911, 48.885735 ] } },
{ "type": "Feature", "properties": { "osm_id": "5141182421", "name": "Galerie Treize-Dix", "other_tags": "\"addr:housenumber\"=>\"13\",\"addr:postcode\"=>\"75010\",\"addr:street\"=>\"Rue Taylor\",\"phone\"=>\"+33 7 87 80 00 41\",\"tourism\"=>\"museum\"" }, "geometry": { "type": "Point", "coordinates": [ 2.3593124, 48.8696083 ] } },
{ "type": "Feature", "properties": { "osm_id": "5183064774", "name": "Orelec", "other_tags": "\"level\"=>\"0\",\"shop\"=>\"department_store\"" }, "geometry": { "type": "Point", "coordinates": [ 2.3564396, 48.8772128 ] } },
{ "type": "Feature", "properties": { "osm_id": "5207272325", "name": "Mega-Lots", "other_tags": "\"shop\"=>\"department_store\"" }, "geometry": { "type": "Point", "coordinates": [ 2.3132456, 48.8214685 ] } },
{ "type": "Feature", "properties": { "osm_id": "5224649852", "other_tags": "\"noname\"=>\"yes\",\"opening_hours\"=>\"24/7\",\"shop\"=>\"mall\"" }, "geometry": { "type": "Point", "coordinates": [ 2.1280432, 48.9429498 ] } },
{ "type": "Feature", "properties": { "osm_id": "5273855847", "name": "La Grande Épicerie", "other_tags": "\"contact:phone\"=>\"+33 1 44143800\",\"contact:website\"=>\"http://www.lagrandeepicerie.com/\",\"opening_hours\"=>\"Mo-Sa 08:30-21:00; Su 10:00-20:00\",\"shop\"=>\"department_store\"" }, "geometry": { "type": "Point", "coordinates": [ 2.2758545, 48.8582226 ] } },
{ "type": "Feature", "properties": { "osm_id": "5304864568", "name": "Musée de la Musique", "other_tags": "\"addr:city\"=>\"Paris\",\"addr:housenumber\"=>\"221\",\"addr:postcode\"=>\"75019\",\"addr:street\"=>\"Avenue Jean Jaurès\",\"contact:website\"=>\"https://philharmoniedeparis.fr/fr/musee-de-la-musique\",\"fee\"=>\"yes\",\"name:en\"=>\"Museum of Music\",\"opening_hours\"=>\"Tu-Fr 12:00-18:00; Sa,Su 10:00-18:00\",\"ref:FR:museofile\"=>\"M5057\",\"tourism\"=>\"museum\"" }, "geometry": { "type": "Point", "coordinates": [ 2.393712, 48.8901928 ] } },
{ "type": "Feature", "properties": { "osm_id": "5330136721", "name": "Fragonard", "other_tags": "\"addr:housenumber\"=>\"39\",\"addr:street\"=>\"Boulevard des Capucines\",\"name:ru\"=>\"Фрагонар\",\"phone\"=>\"+33 1 40 20 67 71\",\"ref:FR:museofile\"=>\"M5030\",\"tourism\"=>\"museum\",\"website\"=>\"http://www.musee-orangerie.fr/\"" }, "geometry": { "type": "Point", "coordinates": [ 2.3290398, 48.8699259 ] } },
{ "type": "Feature", "properties": { "osm_id": "5407744076", "name": "Aérodrome \"épisodique\" d'Orgenoy", "other_tags": "\"addr:city\"=>\"Boissise-le-Roi\",\"aerodrome:type\"=>\"airfield\",\"aeroway\"=>\"aerodrome\",\"local_ref\"=>\"LF7754\"" }, "geometry": { "type": "Point", "coordinates": [ 2.5734388, 48.4953518 ] } },
{ "type": "Feature", "properties": { "osm_id": "5464879921", "name": "Musée de l’Absinthe", "other_tags": "\"addr:housenumber\"=>\"44\",\"addr:postcode\"=>\"95430\",\"addr:street\"=>\"Rue Alphonse Callé\",\"phone\"=>\"+33 1 30 36 83 26\",\"tourism\"=>\"museum\",\"website\"=>\"http://www.musee-absinthe.com\",\"wikidata\"=>\"Q11284697\"" }, "geometry": { "type": "Point", "coordinates": [ 2.1679412, 49.0717752 ] } },
{ "type": "Feature", "properties": { "osm_id": "5464879922", "name": "Galerie d’Art Contemporain", "other_tags": "\"addr:housenumber\"=>\"5\",\"addr:postcode\"=>\"95430\",\"addr:street\"=>\"Rue du Montcel\",\"phone\"=>\"+33 1 34 48 00 10\",\"tourism\"=>\"museum\"" }, "geometry": { "type": "Point", "coordinates": [ 2.1833517, 49.0734342 ] } },
{ "type": "Feature", "properties": { "osm_id": "5477098937", "name": "France Duval Stalla", "other_tags": "\"addr:housenumber\"=>\"24\",\"addr:street\"=>\"Rue Mayet\",\"opening_hours\"=>\"Tu-Sa 10:30-19:00\",\"shop\"=>\"department_store\"" }, "geometry": { "type": "Point", "coordinates": [ 2.3194336, 48.8460679 ] } },
{ "type": "Feature", "properties": { "osm_id": "5504182322", "name": "Musée de la psychiatrie et des neurosciences", "other_tags": "\"addr:housenumber\"=>\"1\",\"addr:postcode\"=>\"75014\",\"addr:street\"=>\"Rue Cabanis\",\"official_name\"=>\"Musée d’art et d’histoire de l’hôpital Sainte-Anne\",\"operator\"=>\"GHU Paris Psychiatrie & neurosciences\",\"operator:type\"=>\"public\",\"phone\"=>\"+33 6 78 09 12 04\",\"ref:FR:museofile\"=>\"M1202\",\"tourism\"=>\"museum\",\"website\"=>\"http://musee-mahhsa.com\"" }, "geometry": { "type": "Point", "coordinates": [ 2.3391411, 48.8287664 ] } },
{ "type": "Feature", "properties": { "osm_id": "5532829521", "name": "Galerie Thierry Bigaignon", "other_tags": "\"addr:housenumber\"=>\"9\",\"addr:postcode\"=>\"75003\",\"addr:street\"=>\"Rue Charlot\",\"name:en\"=>\"Gallery Thierry Bigaignon\",\"opening_hours\"=>\"Tu-Sa 12:00-19:00\",\"tourism\"=>\"museum\",\"website\"=>\"http://www.thierrybigaignon.com/\"" }, "geometry": { "type": "Point", "coordinates": [ 2.360649, 48.861464 ] } },
{ "type": "Feature", "properties": { "osm_id": "5544625121", "name": "Les Caves du Louvre", "other_tags": "\"addr:housenumber\"=>\"52\",\"addr:postcode\"=>\"75001\",\"addr:street\"=>\"Rue de l'Arbre Sec\",\"opening_hours\"=>\"Mo-Sa 14:00-18:00; Su 09:00-18:00\",\"tourism\"=>\"museum\",\"wheelchair\"=>\"no\"" }, "geometry": { "type": "Point", "coordinates": [ 2.3425985, 48.860924 ] } },
{ "type": "Feature", "properties": { "osm_id": "5663863512", "name": "Anciennes Carrières", "other_tags": "\"tourism\"=>\"museum\"" }, "geometry": { "type": "Point", "coordinates": [ 2.0982521, 49.0506428 ] } },
{ "type": "Feature", "properties": { "osm_id": "5677703873", "name": "Musée de la Rose", "other_tags": "\"tourism\"=>\"museum\"" }, "geometry": { "type": "Point", "coordinates": [ 2.6583923, 48.6786924 ] } },
{ "type": "Feature", "properties": { "osm_id": "5683585911", "name": "Pavillon de l'histoire locale", "other_tags": "\"email\"=>\"lamemoiredecroissy@free.fr\",\"opening_hours\"=>\"Sa, Su 14:30-18:00\",\"phone\"=>\"+33664670090\",\"tourism\"=>\"museum\",\"website\"=>\"http://lamemoiredecroissy.fr/\",\"wheelchair\"=>\"yes\"" }, "geometry": { "type": "Point", "coordinates": [ 2.151977, 48.8774107 ] } },
{ "type": "Feature", "properties": { "osm_id": "5689102905", "name": "Maison des Arts", "other_tags": "\"operator\"=>\"Ville d'Antony\",\"tourism\"=>\"museum\",\"website\"=>\"https://www.ville-antony.fr/maison-des-arts\"" }, "geometry": { "type": "Point", "coordinates": [ 2.3024307, 48.7551496 ] } },
{ "type": "Feature", "properties": { "osm_id": "5709396442", "name": "La Grande Épicerie", "other_tags": "\"contact:phone\"=>\"+33 1 44143800\",\"contact:website\"=>\"http://www.lagrandeepicerie.com/\",\"opening_hours\"=>\"Mo-Sa 08:30-21:00; Su 10:00-20:00\",\"shop\"=>\"department_store\"" }, "geometry": { "type": "Point", "coordinates": [ 2.2758262, 48.8585519 ] } },
{ "type": "Feature", "properties": { "osm_id": "5741257391", "name": "Musée historique", "other_tags": "\"addr:city\"=>\"Saint-Cloud\",\"addr:postcode\"=>\"92210\",\"addr:street\"=>\"Avenue de la Grille d'Honneur\",\"tourism\"=>\"museum\"" }, "geometry": { "type": "Point", "coordinates": [ 2.218377, 48.8385636 ] } },
{ "type": "Feature", "properties": { "osm_id": "5842122285", "name": "Jazz Museum", "other_tags": "\"name:en\"=>\"Jazz Museum\",\"tourism\"=>\"museum\"" }, "geometry": { "type": "Point", "coordinates": [ 2.3402103, 48.8953992 ] } },
{ "type": "Feature", "properties": { "osm_id": "5844661976", "name": "Coentre Commercial de la Fontaine", "other_tags": "\"shop\"=>\"mall\"" }, "geometry": { "type": "Point", "coordinates": [ 2.6152182, 48.748199 ] } },
{ "type": "Feature", "properties": { "osm_id": "5880925982", "name": "Musée du papillon", "other_tags": "\"addr:city\"=>\"Paris\",\"addr:housenumber\"=>\"4\",\"addr:postcode\"=>\"75020\",\"addr:street\"=>\"Rue Géo Chavez\",\"tourism\"=>\"museum\"" }, "geometry": { "type": "Point", "coordinates": [ 2.4076385, 48.8651132 ] } },
{ "type": "Feature", "properties": { "osm_id": "5900062533", "name": "Centre Commercial de la Grande Porte", "other_tags": "\"destination\"=>\"M9;T3b;57;215;351\",\"entrance\"=>\"yes\",\"shop\"=>\"mall\"" }, "geometry": { "type": "Point", "coordinates": [ 2.4160479, 48.8547435 ] } },
{ "type": "Feature", "properties": { "osm_id": "6117078328", "name": "Muskhane", "other_tags": "\"addr:city\"=>\"Paris\",\"addr:housenumber\"=>\"3\",\"addr:postcode\"=>\"75003\",\"addr:street\"=>\"Rue Pastourelle\",\"shop\"=>\"department_store\",\"wheelchair\"=>\"no\"" }, "geometry": { "type": "Point", "coordinates": [ 2.3610978, 48.8618089 ] } },
{ "type": "Feature", "properties": { "osm_id": "6207203875", "name": "Epicerie Sociale", "other_tags": "\"shop\"=>\"mall\"" }, "geometry": { "type": "Point", "coordinates": [ 2.227276, 49.0231911 ] } },
{ "type": "Feature", "properties": { "osm_id": "6244621290", "name": "Musée Rodin", "other_tags": "\"addr:city\"=>\"Meudon\",\"addr:housenumber\"=>\"19\",\"addr:postcode\"=>\"92190\",\"addr:street\"=>\"Avenue Auguste Rodin\",\"tourism\"=>\"museum\",\"wikidata\"=>\"Q14912870\"" }, "geometry": { "type": "Point", "coordinates": [ 2.2512891, 48.8150796 ] } },
{ "type": "Feature", "properties": { "osm_id": "6284208779", "name": "Maison du Patrimoine", "other_tags": "\"opening_hours\"=>\"We-Sa 14:00-18:00\",\"operator\"=>\"Ville de Châtillon\",\"tourism\"=>\"museum\"" }, "geometry": { "type": "Point", "coordinates": [ 2.2899633, 48.8010978 ] } },
{ "type": "Feature", "properties": { "osm_id": "6362566178", "name": "Galeries Lafayette Champs-Élysées", "other_tags": "\"addr:city\"=>\"Paris\",\"addr:housenumber\"=>\"60\",\"addr:postcode\"=>\"75008\",\"addr:street\"=>\"Avenue des Champs-Élysées\",\"operator\"=>\"Galeries Lafayette\",\"shop\"=>\"department_store\",\"website\"=>\"https://www.galerieslafayettechampselysees.com/fr\"" }, "geometry": { "type": "Point", "coordinates": [ 2.3063571, 48.8706521 ] } },
{ "type": "Feature", "properties": { "osm_id": "6400913351", "name": "Duty-free", "other_tags": "\"level\"=>\"4\",\"shop\"=>\"mall\"" }, "geometry": { "type": "Point", "coordinates": [ 2.5425344, 49.0139863 ] } },
{ "type": "Feature", "properties": { "osm_id": "6400953018", "name": "Duty Free", "other_tags": "\"level\"=>\"1\",\"opening_hours\"=>\"Mo-Su,PH 04:30-24:00\",\"shop\"=>\"mall\"" }, "geometry": { "type": "Point", "coordinates": [ 2.5384615, 49.0146716 ] } },
{ "type": "Feature", "properties": { "osm_id": "6401779697", "name": "Espace Aubade", "other_tags": "\"addr:housenumber\"=>\"5\",\"addr:postcode\"=>\"78310\",\"addr:street\"=>\"Voie Latérale Sud\",\"opening_hours\"=>\"Mo-Th 06:00-18:30; Fr 07:30-12:00, 13:30-16:00; Sa 08:00-12:00\",\"phone\"=>\"+33 1 30 05 31 01\",\"shop\"=>\"department_store\",\"website\"=>\"http://espace-aubade.fr\"" }, "geometry": { "type": "Point", "coordinates": [ 1.9383197, 48.7551198 ] } },
{ "type": "Feature", "properties": { "osm_id": "6468984786", "name": "Château d'Égreville massenet", "other_tags": "\"addr:postcode\"=>\"77620\",\"addr:street\"=>\"Rue du Château\",\"name:en\"=>\"Château d'Égreville Massenet\",\"name:fr\"=>\"Château d'Égreville Massenet\",\"tourism\"=>\"museum\"" }, "geometry": { "type": "Point", "coordinates": [ 2.869016, 48.174919 ] } },
{ "type": "Feature", "properties": { "osm_id": "6486081747", "name": "Propriete Caillebotte", "other_tags": "\"addr:city\"=>\"Yerres\",\"addr:housenumber\"=>\"8\",\"addr:postcode\"=>\"91330\",\"addr:street\"=>\"Rue de Concy\",\"tourism\"=>\"museum\",\"wheelchair\"=>\"yes\"" }, "geometry": { "type": "Point", "coordinates": [ 2.4887723, 48.7137208 ] } },
{ "type": "Feature", "properties": { "osm_id": "6548929685", "name": "Citeco: Cité de l'économie et de la monnaie", "other_tags": "\"addr:city\"=>\"Paris\",\"addr:housenumber\"=>\"1\",\"addr:postcode\"=>\"75017\",\"addr:street\"=>\"Place du Général Catroux\",\"charge\"=>\"12€\",\"description\"=>\"Horaires\ndu mardi au dimanche de 10h à 18h\nle samedi jusqu’à 19h\n nocturne le premier jeudi du mois jusqu’à 22h (tarification spéciale)\nOuverture exceptionnelle les lundis des petites vacances de la zone C, de 10h à 18h\nFermé les 1er mai, 25/12 et 01/01\",\"fee\"=>\"yes\",\"opening_hours\"=>\"Tu-Fr,Su 10:00-18:00, Sa 10:00-19:00\",\"operator\"=>\"Banque de France\",\"tourism\"=>\"museum\",\"website\"=>\"https://www.citeco.fr/\"" }, "geometry": { "type": "Point", "coordinates": [ 2.3106965, 48.8818908 ] } },
{ "type": "Feature", "properties": { "osm_id": "6655041813", "name": "Fluctuart", "other_tags": "\"amenity\"=>\"bar\",\"fee\"=>\"no\",\"level\"=>\"1;2\",\"museum\"=>\"art\",\"opening_hours\"=>\"Mo-Su 12:00-24:00\",\"outdoor_seating\"=>\"yes\",\"smoking\"=>\"outside\",\"toilets\"=>\"yes\",\"tourism\"=>\"museum\",\"website\"=>\"https://fluctuart.fr/\",\"wheelchair\"=>\"no\"" }, "geometry": { "type": "Point", "coordinates": [ 2.3099155, 48.8630802 ] } },
{ "type": "Feature", "properties": { "osm_id": "6760370089", "name": "Musée Pierre Cardin", "other_tags": "\"fee\"=>\"yes\",\"tourism\"=>\"museum\"" }, "geometry": { "type": "Point", "coordinates": [ 2.3533671, 48.8590542 ] } },
{ "type": "Feature", "properties": { "osm_id": "6860970815", "name": "Le Musée du Fumeur", "other_tags": "\"opening_hours\"=>\"Mo-Sa 12:30-19:30\",\"phone\"=>\"+33146590551\",\"shop\"=>\"tobacco\",\"survey:date\"=>\"2019-10-08\",\"tourism\"=>\"museum\",\"website\"=>\"https://www.museedufumeur.net/\",\"wheelchair\"=>\"limited\",\"wikidata\"=>\"Q3330353\"" }, "geometry": { "type": "Point", "coordinates": [ 2.382216, 48.8586561 ] } },